$GPGGA,184945.96,4245.431317,N,07129.408800,W,1,08,2.4,71.8,M,-32.9,M,,*6C
$GPGGA,185006.00,4245.448568,N,07129.397560,W,1,15,0.4,56.9,M,-32.9,M,,*6C
$GPGGA,185007.00,4245.448568,N,07129.397560,W,1,15,0.4,56.9,M,-32.9,M,,*6D
$GPGGA,185008.00,4245.448568,N,07129.397560,W,1,15,0.4,57.1,M,-32.9,M,,*6B
$GPGGA,185009.00,4245.449706,N,07129.397626,W,1,15,0.6,57.4,M,-32.9,M,,*67
$GPGGA,185010.00,4245.450194,N,07129.397155,W,1,15,0.6,57.6,M,-32.9,M,,*6B
$GPGGA,185011.00,4245.451064,N,07129.397177,W,1,15,0.4,57.9,M,-32.9,M,,*68
$GPGGA,185012.00,4245.451715,N,07129.397214,W,1,15,0.4,58.2,M,-32.9,M,,*68
$GPGGA,185013.00,4245.452247,N,07129.397063,W,1,16,0.4,58.2,M,-32.9,M,,*69
$GPGGA,185014.00,4245.452781,N,07129.397110,W,1,16,0.4,58.0,M,-32.9,M,,*66
$GPGGA,185015.00,4245.453189,N,07129.397356,W,1,15,0.4,58.2,M,-32.9,M,,*69
$GPGGA,185016.00,4245.453810,N,07129.397498,W,1,15,0.4,58.5,M,-32.9,M,,*61
$GPGGA,185017.00,4245.454633,N,07129.397935,W,1,15,0.4,58.6,M,-32.9,M,,*61
$GPGGA,185018.00,4245.455251,N,07129.398256,W,1,15,0.4,58.6,M,-32.9,M,,*6E
$GPGGA,185019.00,4245.456252,N,07129.398849,W,1,15,0.4,58.6,M,-32.9,M,,*6B
$GPGGA,185020.00,4245.456598,N,07129.398955,W,1,16,0.4,58.6,M,-32.9,M,,*6F
$GPGGA,185021.00,4245.457462,N,07129.399399,W,1,15,0.4,58.7,M,-32.9,M,,*62
$GPGGA,185022.00,4245.457848,N,07129.399673,W,1,16,0.4,58.7,M,-32.9,M,,*67
$GPGGA,185023.00,4245.457413,N,07129.399697,W,1,15,0.4,58.7,M,-32.9,M,,*6D
$GPGGA,185024.00,4245.457257,N,07129.399480,W,1,15,0.4,58.8,M,-32.9,M,,*67
$GPGGA,185025.00,4245.457851,N,07129.398897,W,1,15,0.4,58.8,M,-32.9,M,,*61
$GPGGA,185026.00,4245.457967,N,07129.399997,W,1,15,0.4,58.8,M,-32.9,M,,*66
$GPGGA,185027.00,4245.457994,N,07129.401042,W,1,15,0.6,58.8,M,-32.9,M,,*6E
$GPGGA,185028.00,4245.458357,N,07129.401028,W,1,15,0.6,58.8,M,-32.9,M,,*67
$GPGGA,185029.00,4245.458690,N,07129.401253,W,1,15,0.6,58.8,M,-32.9,M,,*66
$GPGGA,185030.00,4245.459538,N,07129.402390,W,1,15,0.6,58.7,M,-32.9,M,,*6C
$GPGGA,185031.00,4245.461759,N,07129.403840,W,1,15,0.6,58.7,M,-32.9,M,,*64
$GPGGA,185032.00,4245.463020,N,07129.405323,W,1,15,0.6,58.7,M,-32.9,M,,*64
$GPGGA,185033.00,4245.463888,N,07129.406119,W,1,15,0.6,58.7,M,-32.9,M,,*67
$GPGGA,185034.00,4245.463937,N,07129.408367,W,1,16,0.4,58.6,M,-32.9,M,,*60
$GPGGA,185035.00,4245.464019,N,07129.407824,W,1,16,0.4,58.6,M,-32.9,M,,*60
$GPGGA,185036.00,4245.464431,N,07129.408699,W,1,16,0.4,58.6,M,-32.9,M,,*6A
$GPGGA,185037.00,4245.464597,N,07129.408919,W,1,16,0.4,58.6,M,-32.9,M,,*61
$GPGGA,185038.00,4245.465044,N,07129.409609,W,1,16,0.6,58.6,M,-32.9,M,,*69
$GPGGA,185039.00,4245.465646,N,07129.410629,W,1,16,0.6,58.7,M,-32.9,M,,*67
$GPGGA,185040.00,4245.465780,N,07129.411018,W,1,16,0.6,58.7,M,-32.9,M,,*67
$GPGGA,185041.00,4245.466138,N,07129.411936,W,1,16,0.6,58.8,M,-32.9,M,,*6A
$GPGGA,185042.00,4245.466545,N,07129.412619,W,1,16,0.6,58.8,M,-32.9,M,,*66
$GPGGA,185043.00,4245.467919,N,07129.413976,W,1,16,0.6,58.8,M,-32.9,M,,*64
$GPGGA,185044.00,4245.468790,N,07129.415062,W,1,16,0.6,58.9,M,-32.9,M,,*68
$GPGGA,185045.00,4245.469653,N,07129.415744,W,1,16,0.6,58.9,M,-32.9,M,,*65
$GPGGA,185046.00,4245.470857,N,07129.417261,W,1,16,0.6,58.9,M,-32.9,M,,*64
$GPGGA,185047.00,4245.471771,N,07129.418645,W,1,16,0.6,59.0,M,-32.9,M,,*6A
$GPGGA,185048.00,4245.472627,N,07129.419664,W,1,16,0.6,59.0,M,-32.9,M,,*66
$GPGGA,185049.00,4245.474152,N,07129.421419,W,1,16,0.6,59.1,M,-32.9,M,,*66
$GPGGA,185050.00,4245.474782,N,07129.421937,W,1,16,0.6,59.1,M,-32.9,M,,*64
$GPGGA,185051.00,4245.475484,N,07129.423375,W,1,16,0.6,59.2,M,-32.9,M,,*6C
$GPGGA,185052.00,4245.475643,N,07129.423741,W,1,16,0.6,59.2,M,-32.9,M,,*65
$GPGGA,185053.00,4245.475633,N,07129.424147,W,1,16,0.6,59.1,M,-32.9,M,,*67
$GPGGA,185054.00,4245.475812,N,07129.424449,W,1,16,0.4,59.1,M,-32.9,M,,*64
$GPGGA,185055.00,4245.476171,N,07129.425261,W,1,16,0.4,59.1,M,-32.9,M,,*67
$GPGGA,185056.00,4245.476194,N,07129.425573,W,1,16,0.4,59.1,M,-32.9,M,,*6B
$GPGGA,185057.00,4245.476926,N,07129.427256,W,1,16,0.4,59.0,M,-32.9,M,,*68
$GPGGA,185058.00,4245.476919,N,07129.427995,W,1,16,0.6,58.9,M,-32.9,M,,*65
$GPGGA,185059.00,4245.477208,N,07129.428538,W,1,16,0.6,58.9,M,-32.9,M,,*6A
$GPGGA,185100.00,4245.477045,N,07129.429282,W,1,16,0.6,58.8,M,-32.9,M,,*6A
$GPGGA,185101.00,4245.477344,N,07129.430554,W,1,16,0.6,58.8,M,-32.9,M,,*6D
$GPGGA,185102.00,4245.477089,N,07129.431304,W,1,16,0.6,58.8,M,-32.9,M,,*6E
$GPGGA,185103.00,4245.476847,N,07129.433045,W,1,16,0.6,58.7,M,-32.9,M,,*6F
$GPGGA,185104.00,4245.476747,N,07129.434849,W,1,16,0.6,58.6,M,-32.9,M,,*65
$GPGGA,185105.00,4245.477142,N,07129.435262,W,1,16,0.6,58.5,M,-32.9,M,,*67
$GPGGA,185106.00,4245.477204,N,07129.435350,W,1,16,0.4,58.4,M,-32.9,M,,*66
$GPGGA,185107.00,4245.477194,N,07129.435903,W,1,16,0.4,58.3,M,-32.9,M,,*66
$GPGGA,185108.00,4245.477357,N,07129.436280,W,1,16,0.4,58.2,M,-32.9,M,,*66
$GPGGA,185109.00,4245.478393,N,07129.436760,W,1,16,0.4,58.0,M,-32.9,M,,*69
$GPGGA,185110.00,4245.479467,N,07129.436813,W,1,16,0.6,57.9,M,-32.9,M,,*63
$GPGGA,185111.00,4245.480118,N,07129.436708,W,1,16,0.6,57.7,M,-32.9,M,,*62
$GPGGA,185112.00,4245.480696,N,07129.436474,W,1,16,0.6,57.5,M,-32.9,M,,*6A
$GPGGA,185113.00,4245.481726,N,07129.436761,W,1,16,0.6,57.3,M,-32.9,M,,*61
$GPGGA,185114.00,4245.482099,N,07129.437062,W,1,16,0.6,57.1,M,-32.9,M,,*61
$GPGGA,185115.00,4245.482221,N,07129.437208,W,1,16,0.4,56.9,M,-32.9,M,,*64
$GPGGA,185116.00,4245.482761,N,07129.436681,W,1,16,0.4,56.7,M,-32.9,M,,*6C
$GPGGA,185117.00,4245.483788,N,07129.436737,W,1,16,0.4,56.5,M,-32.9,M,,*65
$GPGGA,185118.00,4245.484021,N,07129.436370,W,1,16,0.6,56.5,M,-32.9,M,,*6C
$GPGGA,185119.00,4245.484036,N,07129.436338,W,1,16,0.6,56.3,M,-32.9,M,,*61
$GPGGA,185120.00,4245.483599,N,07129.436103,W,1,16,0.6,56.1,M,-32.9,M,,*64
$GPGGA,185121.00,4245.484640,N,07129.435663,W,1,16,0.6,55.9,M,-32.9,M,,*6C
$GPGGA,185122.00,4245.485409,N,07129.435217,W,1,16,0.6,55.8,M,-32.9,M,,*67
$GPGGA,185123.00,4245.486782,N,07129.434680,W,1,16,0.6,55.6,M,-32.9,M,,*60
$GPGGA,185124.00,4245.486918,N,07129.434339,W,1,16,0.6,55.3,M,-32.9,M,,*68
$GPGGA,185125.00,4245.487432,N,07129.434376,W,1,16,0.6,55.1,M,-32.9,M,,*64
$GPGGA,185126.00,4245.486830,N,07129.434877,W,1,16,0.6,54.9,M,-32.9,M,,*6B
$GPGGA,185127.00,4245.486896,N,07129.434872,W,1,16,0.6,54.7,M,-32.9,M,,*6D
$GPGGA,185128.00,4245.487838,N,07129.434606,W,1,16,0.6,54.5,M,-32.9,M,,*68
$GPGGA,185129.00,4245.486356,N,07129.435828,W,1,16,0.6,54.4,M,-32.9,M,,*69
$GPGGA,185130.00,4245.486482,N,07129.435901,W,1,16,0.6,54.3,M,-32.9,M,,*62
$GPGGA,185131.00,4245.487831,N,07129.436317,W,1,16,0.6,54.2,M,-32.9,M,,*69
$GPGGA,185132.00,4245.488913,N,07129.436253,W,1,16,0.6,54.2,M,-32.9,M,,*65
$GPGGA,185133.00,4245.489958,N,07129.435523,W,1,16,0.6,54.1,M,-32.9,M,,*6A
$GPGGA,185134.00,4245.490915,N,07129.435761,W,1,16,0.6,54.1,M,-32.9,M,,*68
$GPGGA,185135.00,4245.491751,N,07129.436016,W,1,16,0.6,54.0,M,-32.9,M,,*63
$GPGGA,185136.00,4245.493180,N,07129.435883,W,1,16,0.6,54.0,M,-32.9,M,,*6F
$GPGGA,185137.00,4245.494911,N,07129.435745,W,1,16,0.6,54.0,M,-32.9,M,,*6C
$GPGGA,185138.00,4245.497218,N,07129.434674,W,1,16,0.6,54.0,M,-32.9,M,,*60
$GPGGA,185139.00,4245.497623,N,07129.434608,W,1,16,0.6,54.0,M,-32.9,M,,*66
$GPGGA,185140.00,4245.498544,N,07129.433114,W,1,16,0.6,54.0,M,-32.9,M,,*68
$GPGGA,185141.00,4245.499084,N,07129.431823,W,1,16,0.6,53.9,M,-32.9,M,,*60
$GPGGA,185142.00,4245.499520,N,07129.430449,W,1,16,0.4,53.9,M,-32.9,M,,*6B
$GPGGA,185143.00,4245.499423,N,07129.428817,W,1,16,0.4,53.8,M,-32.9,M,,*67
$GPGGA,185144.00,4245.498907,N,07129.427326,W,1,16,0.4,53.8,M,-32.9,M,,*6C
$GPGGA,185145.00,4245.498393,N,07129.427019,W,1,16,0.4,53.8,M,-32.9,M,,*65
$GPGGA,185146.00,4245.498171,N,07129.425974,W,1,16,0.4,53.7,M,-32.9,M,,*67
$GPGGA,185147.00,4245.497852,N,07129.425051,W,1,16,0.4,53.7,M,-32.9,M,,*6F
$GPGGA,185148.00,4245.497857,N,07129.425250,W,1,16,0.4,53.7,M,-32.9,M,,*66
$GPGGA,185149.00,4245.497512,N,07129.423875,W,1,16,0.6,53.8,M,-32.9,M,,*6D
$GPGGA,185150.00,4245.497110,N,07129.422274,W,1,16,0.6,53.8,M,-32.9,M,,*69
$GPGGA,185151.00,4245.497398,N,07129.419739,W,1,16,0.6,53.9,M,-32.9,M,,*6F
$GPGGA,185152.00,4245.497551,N,07129.418707,W,1,16,0.6,53.9,M,-32.9,M,,*63
$GPGGA,185153.00,4245.497663,N,07129.417568,W,1,16,0.6,54.0,M,-32.9,M,,*6A
$GPGGA,185154.00,4245.498021,N,07129.416903,W,1,16,0.6,54.2,M,-32.9,M,,*60
$GPGGA,185155.00,4245.498287,N,07129.415683,W,1,16,0.6,54.3,M,-32.9,M,,*6A
$GPGGA,185156.00,4245.498582,N,07129.416122,W,1,16,0.6,54.5,M,-32.9,M,,*62
$GPGGA,185157.00,4245.499348,N,07129.414615,W,1,16,0.6,54.6,M,-32.9,M,,*60
$GPGGA,185158.00,4245.499792,N,07129.413120,W,1,16,0.6,54.7,M,-32.9,M,,*6B
$GPGGA,185159.00,4245.500443,N,07129.412046,W,1,16,0.6,54.8,M,-32.9,M,,*6B
$GPGGA,185200.00,4245.500847,N,07129.411312,W,1,16,0.6,55.0,M,-32.9,M,,*64
$GPGGA,185201.00,4245.501624,N,07129.410875,W,1,16,0.6,55.1,M,-32.9,M,,*65
$GPGGA,185202.00,4245.502040,N,07129.411183,W,1,16,0.6,55.3,M,-32.9,M,,*62
$GPGGA,185203.00,4245.502147,N,07129.411124,W,1,16,0.6,55.3,M,-32.9,M,,*68
$GPGGA,185204.00,4245.501773,N,07129.410791,W,1,16,0.6,55.4,M,-32.9,M,,*63
$GPGGA,185205.00,4245.501877,N,07129.409389,W,1,16,0.4,55.5,M,-32.9,M,,*6F
$GPGGA,185206.00,4245.501803,N,07129.408382,W,1,16,0.4,55.5,M,-32.9,M,,*65
$GPGGA,185207.00,4245.501769,N,07129.408075,W,1,16,0.4,55.4,M,-32.9,M,,*6D
$GPGGA,185208.00,4245.501741,N,07129.407652,W,1,16,0.4,55.4,M,-32.9,M,,*64
$GPGGA,185209.00,4245.501744,N,07129.407091,W,1,16,0.4,55.4,M,-32.9,M,,*69
$GPGGA,185210.00,4245.502098,N,07129.406455,W,1,16,0.4,55.4,M,-32.9,M,,*69
$GPGGA,185211.00,4245.502639,N,07129.405797,W,1,16,0.4,55.3,M,-32.9,M,,*6C
$GPGGA,185212.00,4245.503030,N,07129.404846,W,1,16,0.4,55.3,M,-32.9,M,,*63
$GPGGA,185213.00,4245.503839,N,07129.403243,W,1,16,0.4,55.3,M,-32.9,M,,*6B
$GPGGA,185214.00,4245.504370,N,07129.402150,W,1,16,0.4,55.4,M,-32.9,M,,*6A
$GPGGA,185215.00,4245.504639,N,07129.401552,W,1,16,0.4,55.4,M,-32.9,M,,*66
$GPGGA,185216.00,4245.504885,N,07129.401243,W,1,16,0.4,55.4,M,-32.9,M,,*6B
$GPGGA,185217.00,4245.505086,N,07129.400695,W,1,16,0.4,55.3,M,-32.9,M,,*69
$GPGGA,185218.00,4245.505020,N,07129.399073,W,1,16,0.4,55.3,M,-32.9,M,,*63
$GPGGA,185219.00,4245.505124,N,07129.398818,W,1,16,0.4,55.3,M,-32.9,M,,*63
$GPGGA,185220.00,4245.505454,N,07129.398220,W,1,16,0.4,55.3,M,-32.9,M,,*6A
$GPGGA,185221.00,4245.506083,N,07129.397344,W,1,16,0.4,55.3,M,-32.9,M,,*6A
$GPGGA,185222.00,4245.506523,N,07129.397407,W,1,16,0.4,55.2,M,-32.9,M,,*67
$GPGGA,185223.00,4245.506886,N,07129.396649,W,1,16,0.4,55.2,M,-32.9,M,,*6D
$GPGGA,185224.00,4245.507273,N,07129.396006,W,1,16,0.4,55.1,M,-32.9,M,,*65
$GPGGA,185225.00,4245.507610,N,07129.396105,W,1,16,0.4,55.1,M,-32.9,M,,*67
$GPGGA,185226.00,4245.508521,N,07129.394883,W,1,16,0.4,55.0,M,-32.9,M,,*6E
$GPGGA,185227.00,4245.509094,N,07129.395220,W,1,16,0.4,55.0,M,-32.9,M,,*67
$GPGGA,185228.00,4245.510359,N,07129.392157,W,1,16,0.4,54.9,M,-32.9,M,,*6E
$GPGGA,185229.00,4245.510829,N,07129.390776,W,1,16,0.4,54.9,M,-32.9,M,,*64
$GPGGA,185230.00,4245.511199,N,07129.390315,W,1,16,0.4,54.9,M,-32.9,M,,*6E
$GPGGA,185231.00,4245.511882,N,07129.389286,W,1,16,0.4,54.9,M,-32.9,M,,*6F
$GPGGA,185232.00,4245.512362,N,07129.388042,W,1,16,0.4,54.9,M,-32.9,M,,*61
$GPGGA,185233.00,4245.512473,N,07129.387523,W,1,16,0.4,54.9,M,-32.9,M,,*6A
$GPGGA,185234.00,4245.512788,N,07129.386758,W,1,16,0.4,54.9,M,-32.9,M,,*65
$GPGGA,185235.00,4245.512772,N,07129.387086,W,1,16,0.4,54.8,M,-32.9,M,,*65
$GPGGA,185236.00,4245.513127,N,07129.387500,W,1,16,0.6,54.8,M,-32.9,M,,*68
$GPGGA,185237.00,4245.513270,N,07129.387731,W,1,16,0.6,54.8,M,-32.9,M,,*68
$GPGGA,185238.00,4245.513666,N,07129.388737,W,1,16,0.6,54.8,M,-32.9,M,,*6D
$GPGGA,185239.00,4245.513367,N,07129.387550,W,1,16,0.6,54.8,M,-32.9,M,,*64
$GPGGA,185240.00,4245.513283,N,07129.386885,W,1,16,0.6,54.8,M,-32.9,M,,*65
$GPGGA,185241.00,4245.513019,N,07129.387592,W,1,16,0.6,54.8,M,-32.9,M,,*6F
$GPGGA,185242.00,4245.512913,N,07129.387122,W,1,16,0.6,54.9,M,-32.9,M,,*60
$GPGGA,185243.00,4245.512233,N,07129.385795,W,1,16,0.6,54.9,M,-32.9,M,,*60
$GPGGA,185244.00,4245.512308,N,07129.385570,W,1,16,0.4,54.9,M,-32.9,M,,*65
$GPGGA,185245.00,4245.512397,N,07129.385386,W,1,16,0.4,55.0,M,-32.9,M,,*65
$GPGGA,185246.00,4245.511509,N,07129.384144,W,1,16,0.4,55.0,M,-32.9,M,,*69
$GPGGA,185247.00,4245.510922,N,07129.382958,W,1,16,0.4,55.0,M,-32.9,M,,*6F
$GPGGA,185248.00,4245.510445,N,07129.382694,W,1,16,0.6,55.1,M,-32.9,M,,*60
$GPGGA,185249.00,4245.509829,N,07129.381312,W,1,16,0.6,55.1,M,-32.9,M,,*67
$GPGGA,185250.00,4245.508767,N,07129.380063,W,1,16,0.6,55.2,M,-32.9,M,,*6C
$GPGGA,185251.00,4245.507198,N,07129.377862,W,1,16,0.4,55.2,M,-32.9,M,,*67
$GPGGA,185252.00,4245.507189,N,07129.377162,W,1,16,0.4,55.2,M,-32.9,M,,*6D
$GPGGA,185253.00,4245.506424,N,07129.378302,W,1,16,0.4,55.2,M,-32.9,M,,*64
$GPGGA,185254.00,4245.506592,N,07129.377101,W,1,16,0.4,55.2,M,-32.9,M,,*61
$GPGGA,185255.00,4245.506233,N,07129.376949,W,1,16,0.4,55.2,M,-32.9,M,,*69
$GPGGA,185256.00,4245.505281,N,07129.376452,W,1,16,0.4,55.2,M,-32.9,M,,*67
$GPGGA,185257.00,4245.504924,N,07129.374769,W,1,16,0.4,55.1,M,-32.9,M,,*69
$GPGGA,185258.00,4245.504998,N,07129.374722,W,1,16,0.4,54.9,M,-32.9,M,,*67
$GPGGA,185259.00,4245.503946,N,07129.373667,W,1,16,0.4,54.8,M,-32.9,M,,*64
$GPGGA,185300.00,4245.503007,N,07129.372679,W,1,16,0.4,54.7,M,-32.9,M,,*64
$GPGGA,185301.00,4245.502105,N,07129.372333,W,1,16,0.4,54.6,M,-32.9,M,,*6D
$GPGGA,185302.00,4245.501391,N,07129.371910,W,1,16,0.4,54.5,M,-32.9,M,,*69
$GPGGA,185303.00,4245.501936,N,07129.370279,W,1,16,0.4,54.3,M,-32.9,M,,*6C
$GPGGA,185304.00,4245.501768,N,07129.369219,W,1,16,0.4,54.2,M,-32.9,M,,*61
$GPGGA,185305.00,4245.501491,N,07129.368470,W,1,16,0.4,54.1,M,-32.9,M,,*6E
$GPGGA,185306.00,4245.501223,N,07129.368169,W,1,16,0.4,54.0,M,-32.9,M,,*6E
$GPGGA,185307.00,4245.501041,N,07129.367995,W,1,16,0.4,54.0,M,-32.9,M,,*6D
$GPGGA,185308.00,4245.500985,N,07129.367996,W,1,16,0.4,53.9,M,-32.9,M,,*6F
$GPGGA,185309.00,4245.500711,N,07129.368081,W,1,16,0.4,53.8,M,-32.9,M,,*6C
$GPGGA,185310.00,4245.500238,N,07129.366975,W,1,16,0.6,53.7,M,-32.9,M,,*6B
$GPGGA,185311.00,4245.499856,N,07129.366356,W,1,16,0.6,53.5,M,-32.9,M,,*60
$GPGGA,185312.00,4245.498811,N,07129.363357,W,1,16,0.6,53.4,M,-32.9,M,,*64
$GPGGA,185313.00,4245.496942,N,07129.359900,W,1,16,0.6,53.3,M,-32.9,M,,*6A
$GPGGA,185314.00,4245.496403,N,07129.358883,W,1,16,0.4,53.2,M,-32.9,M,,*6D
$GPGGA,185315.00,4245.496029,N,07129.357615,W,1,16,0.4,53.0,M,-32.9,M,,*6C
$GPGGA,185316.00,4245.495532,N,07129.356693,W,1,16,0.4,52.9,M,-32.9,M,,*64
$GPGGA,185317.00,4245.494945,N,07129.356200,W,1,16,0.4,52.7,M,-32.9,M,,*68
$GPGGA,185318.00,4245.494716,N,07129.356200,W,1,16,0.4,52.5,M,-32.9,M,,*6D
$GPGGA,185319.00,4245.494425,N,07129.355744,W,1,16,0.4,52.3,M,-32.9,M,,*6F
$GPGGA,185320.00,4245.494027,N,07129.354489,W,1,16,0.4,52.1,M,-32.9,M,,*62
$GPGGA,185321.00,4245.493428,N,07129.353684,W,1,16,0.4,52.0,M,-32.9,M,,*66
$GPGGA,185322.00,4245.492800,N,07129.352824,W,1,16,0.4,51.8,M,-32.9,M,,*6C
$GPGGA,185323.00,4245.491813,N,07129.351930,W,1,16,0.4,51.7,M,-32.9,M,,*64
$GPGGA,185324.00,4245.491680,N,07129.351830,W,1,16,0.4,51.6,M,-32.9,M,,*67
$GPGGA,185325.00,4245.491139,N,07129.351000,W,1,16,0.4,51.6,M,-32.9,M,,*68
$GPGGA,185326.00,4245.490099,N,07129.350064,W,1,16,0.4,51.6,M,-32.9,M,,*62
$GPGGA,185327.00,4245.489487,N,07129.349216,W,1,16,0.4,51.5,M,-32.9,M,,*6C
$GPGGA,185328.00,4245.488950,N,07129.348085,W,1,16,0.4,51.5,M,-32.9,M,,*6C
$GPGGA,185329.00,4245.488686,N,07129.348071,W,1,16,0.4,51.4,M,-32.9,M,,*63
$GPGGA,185330.00,4245.488131,N,07129.347931,W,1,16,0.4,51.4,M,-32.9,M,,*62
$GPGGA,185331.00,4245.487694,N,07129.348022,W,1,16,0.4,51.4,M,-32.9,M,,*60
$GPGGA,185332.00,4245.487000,N,07129.347457,W,1,16,0.4,51.3,M,-32.9,M,,*66
$GPGGA,185333.00,4245.486643,N,07129.346832,W,1,16,0.4,51.3,M,-32.9,M,,*69
$GPGGA,185334.00,4245.485953,N,07129.346685,W,1,16,0.4,51.3,M,-32.9,M,,*61
$GPGGA,185335.00,4245.485249,N,07129.345684,W,1,16,0.4,51.4,M,-32.9,M,,*65
$GPGGA,185336.00,4245.484516,N,07129.344722,W,1,16,0.4,51.4,M,-32.9,M,,*66
$GPGGA,185337.00,4245.484206,N,07129.344155,W,1,16,0.4,51.4,M,-32.9,M,,*67
$GPGGA,185338.00,4245.484019,N,07129.343235,W,1,16,0.4,51.4,M,-32.9,M,,*66
$GPGGA,185339.00,4245.483707,N,07129.342389,W,1,16,0.4,51.4,M,-32.9,M,,*6F
$GPGGA,185340.00,4245.483517,N,07129.341654,W,1,16,0.4,51.4,M,-32.9,M,,*64
$GPGGA,185341.00,4245.483388,N,07129.341127,W,1,16,0.4,51.4,M,-32.9,M,,*66
$GPGGA,185342.00,4245.483052,N,07129.340430,W,1,16,0.4,51.4,M,-32.9,M,,*63
$GPGGA,185343.00,4245.482685,N,07129.340009,W,1,16,0.4,51.3,M,-32.9,M,,*66
$GPGGA,185344.00,4245.482112,N,07129.339419,W,1,16,0.4,51.3,M,-32.9,M,,*63
$GPGGA,185345.00,4245.481692,N,07129.338521,W,1,16,0.4,51.3,M,-32.9,M,,*65
$GPGGA,185346.00,4245.481024,N,07129.337694,W,1,16,0.4,51.2,M,-32.9,M,,*6E
$GPGGA,185347.00,4245.481031,N,07129.337153,W,1,16,0.4,51.2,M,-32.9,M,,*67
$GPGGA,185348.00,4245.480457,N,07129.336394,W,1,16,0.4,51.2,M,-32.9,M,,*65
$GPGGA,185349.00,4245.480454,N,07129.335722,W,1,16,0.4,51.1,M,-32.9,M,,*6E
$GPGGA,185350.00,4245.479619,N,07129.334759,W,1,16,0.4,51.1,M,-32.9,M,,*66
$GPGGA,185351.00,4245.479043,N,07129.334186,W,1,16,0.4,51.0,M,-32.9,M,,*6B
$GPGGA,185352.00,4245.478521,N,07129.333826,W,1,16,0.4,50.9,M,-32.9,M,,*64
$GPGGA,185353.00,4245.478383,N,07129.333588,W,1,16,0.4,50.9,M,-32.9,M,,*62
$GPGGA,185354.00,4245.477935,N,07129.333510,W,1,16,0.4,50.8,M,-32.9,M,,*6D
$GPGGA,185355.00,4245.477905,N,07129.333671,W,1,16,0.4,50.8,M,-32.9,M,,*6B
$GPGGA,185356.00,4245.477702,N,07129.333108,W,1,16,0.4,50.7,M,-32.9,M,,*67
$GPGGA,185357.00,4245.476805,N,07129.332075,W,1,16,0.4,50.6,M,-32.9,M,,*64
$GPGGA,185358.00,4245.475868,N,07129.330803,W,1,16,0.4,50.5,M,-32.9,M,,*6B
$GPGGA,185359.00,4245.475150,N,07129.329707,W,1,16,0.4,50.5,M,-32.9,M,,*6B
$GPGGA,185400.00,4245.474882,N,07129.328899,W,1,16,0.4,50.5,M,-32.9,M,,*6E
$GPGGA,185401.00,4245.474126,N,07129.327563,W,1,16,0.4,50.4,M,-32.9,M,,*6E
$GPGGA,185402.00,4245.473301,N,07129.326972,W,1,16,0.4,50.4,M,-32.9,M,,*60
$GPGGA,185403.00,4245.473327,N,07129.326372,W,1,16,0.4,50.4,M,-32.9,M,,*6F
$GPGGA,185404.00,4245.473192,N,07129.325365,W,1,16,0.4,50.3,M,-32.9,M,,*66
$GPGGA,185405.00,4245.472705,N,07129.324712,W,1,16,0.4,50.3,M,-32.9,M,,*6B
$GPGGA,185406.00,4245.472287,N,07129.324625,W,1,16,0.4,50.3,M,-32.9,M,,*62
$GPGGA,185407.00,4245.471968,N,07129.323871,W,1,16,0.4,50.2,M,-32.9,M,,*63
$GPGGA,185408.00,4245.471297,N,07129.323140,W,1,16,0.4,50.2,M,-32.9,M,,*6C
$GPGGA,185409.00,4245.470615,N,07129.322057,W,1,16,0.4,50.1,M,-32.9,M,,*67
$GPGGA,185410.00,4245.470077,N,07129.320527,W,1,16,0.4,50.1,M,-32.9,M,,*6D
$GPGGA,185411.00,4245.469675,N,07129.319230,W,1,16,0.4,50.0,M,-32.9,M,,*6A
$GPGGA,185412.00,4245.469776,N,07129.319637,W,1,16,0.4,50.0,M,-32.9,M,,*68
$GPGGA,185413.00,4245.469703,N,07129.319630,W,1,16,0.4,50.0,M,-32.9,M,,*6C
$GPGGA,185414.00,4245.469558,N,07129.319150,W,1,16,0.6,49.9,M,-32.9,M,,*65
$GPGGA,185415.00,4245.469611,N,07129.318937,W,1,16,0.6,49.9,M,-32.9,M,,*62
$GPGGA,185416.00,4245.469417,N,07129.319013,W,1,16,0.6,49.9,M,-32.9,M,,*6B
$GPGGA,185417.00,4245.469050,N,07129.319483,W,1,16,0.6,49.8,M,-32.9,M,,*61
$GPGGA,185418.00,4245.469199,N,07129.320487,W,1,16,0.6,49.8,M,-32.9,M,,*64
$GPGGA,185419.00,4245.468443,N,07129.319240,W,1,16,0.6,49.8,M,-32.9,M,,*61
$GPGGA,185420.00,4245.467174,N,07129.317090,W,1,16,0.6,49.7,M,-32.9,M,,*6B
$GPGGA,185421.00,4245.466417,N,07129.316440,W,1,16,0.6,49.6,M,-32.9,M,,*62
$GPGGA,185422.00,4245.465295,N,07129.315653,W,1,16,0.4,49.6,M,-32.9,M,,*6F
$GPGGA,185423.00,4245.464299,N,07129.315587,W,1,16,0.4,49.5,M,-32.9,M,,*6A
$GPGGA,185424.00,4245.463303,N,07129.315119,W,1,16,0.4,49.4,M,-32.9,M,,*6A
$GPGGA,185425.00,4245.462553,N,07129.314241,W,1,16,0.4,49.4,M,-32.9,M,,*66
$GPGGA,185426.00,4245.461400,N,07129.313741,W,1,16,0.6,49.3,M,-32.9,M,,*66
$GPGGA,185427.00,4245.462201,N,07129.313152,W,1,16,0.6,49.3,M,-32.9,M,,*67
$GPGGA,185428.00,4245.460971,N,07129.313932,W,1,16,0.6,49.3,M,-32.9,M,,*68
$GPGGA,185429.00,4245.459345,N,07129.314124,W,1,16,0.6,49.2,M,-32.9,M,,*67
$GPGGA,185430.00,4245.458710,N,07129.314050,W,1,16,0.4,49.2,M,-32.9,M,,*6A
$GPGGA,185431.00,4245.457414,N,07129.313799,W,1,16,0.4,49.1,M,-32.9,M,,*65
$GPGGA,185432.00,4245.456497,N,07129.314327,W,1,16,0.4,49.1,M,-32.9,M,,*6A
$GPGGA,185433.00,4245.455827,N,07129.313636,W,1,16,0.4,49.1,M,-32.9,M,,*6D
$GPGGA,185434.00,4245.455096,N,07129.313182,W,1,16,0.4,49.1,M,-32.9,M,,*60
$GPGGA,185435.00,4245.454350,N,07129.312632,W,1,16,0.4,49.1,M,-32.9,M,,*64
$GPGGA,185436.00,4245.454210,N,07129.312098,W,1,16,0.4,49.1,M,-32.9,M,,*64
$GPGGA,185437.00,4245.453596,N,07129.311583,W,1,16,0.4,49.0,M,-32.9,M,,*66
$GPGGA,185438.00,4245.452828,N,07129.310471,W,1,16,0.6,49.0,M,-32.9,M,,*6F
$GPGGA,185439.00,4245.452886,N,07129.310003,W,1,16,0.6,49.0,M,-32.9,M,,*6B
$GPGGA,185440.00,4245.452107,N,07129.309267,W,1,16,0.6,48.9,M,-32.9,M,,*65
$GPGGA,185441.00,4245.451356,N,07129.308420,W,1,16,0.6,48.9,M,-32.9,M,,*65
$GPGGA,185442.00,4245.450428,N,07129.307338,W,1,16,0.6,48.8,M,-32.9,M,,*69
$GPGGA,185443.00,4245.450552,N,07129.307585,W,1,16,0.6,48.8,M,-32.9,M,,*64
$GPGGA,185444.00,4245.450257,N,07129.306715,W,1,16,0.6,48.8,M,-32.9,M,,*6B
$GPGGA,185445.00,4245.449851,N,07129.306705,W,1,16,0.6,48.7,M,-32.9,M,,*60
$GPGGA,185446.00,4245.448529,N,07129.304170,W,1,16,0.6,48.7,M,-32.9,M,,*66
$GPGGA,185447.00,4245.448374,N,07129.304828,W,1,16,0.6,48.6,M,-32.9,M,,*6C
$GPGGA,185448.00,4245.447800,N,07129.302506,W,1,16,0.6,48.5,M,-32.9,M,,*60
$GPGGA,185449.00,4245.447045,N,07129.301160,W,1,16,0.6,48.4,M,-32.9,M,,*6E
$GPGGA,185450.00,4245.446077,N,07129.298975,W,1,16,0.6,48.4,M,-32.9,M,,*6B
$GPGGA,185451.00,4245.445660,N,07129.298071,W,1,16,0.6,48.3,M,-32.9,M,,*63
$GPGGA,185452.00,4245.445735,N,07129.297814,W,1,16,0.6,48.3,M,-32.9,M,,*65
$GPGGA,185453.00,4245.445974,N,07129.297307,W,1,16,0.6,48.3,M,-32.9,M,,*66
$GPGGA,185454.00,4245.446000,N,07129.296196,W,1,16,0.6,48.3,M,-32.9,M,,*63
$GPGGA,185455.00,4245.445812,N,07129.294036,W,1,16,0.6,48.2,M,-32.9,M,,*62
$GPGGA,185456.00,4245.445547,N,07129.294240,W,1,15,0.6,48.2,M,-32.9,M,,*6C
$GPGGA,185457.00,4245.445409,N,07129.293100,W,1,16,0.6,48.2,M,-32.9,M,,*65
$GPGGA,185458.00,4245.445348,N,07129.292468,W,1,16,0.6,48.2,M,-32.9,M,,*62
$GPGGA,185459.00,4245.445072,N,07129.291084,W,1,16,0.6,48.2,M,-32.9,M,,*6C
$GPGGA,185500.00,4245.444912,N,07129.290310,W,1,16,0.6,48.3,M,-32.9,M,,*61
$GPGGA,185501.00,4245.445290,N,07129.290606,W,1,16,0.6,48.2,M,-32.9,M,,*63
$GPGGA,185502.00,4245.445266,N,07129.290311,W,1,16,0.6,48.3,M,-32.9,M,,*6B
$GPGGA,185503.00,4245.443901,N,07129.288978,W,1,16,0.6,48.3,M,-32.9,M,,*6A
$GPGGA,185504.00,4245.442868,N,07129.287328,W,1,16,0.6,48.3,M,-32.9,M,,*62
$GPGGA,185505.00,4245.442740,N,07129.286615,W,1,16,0.6,48.3,M,-32.9,M,,*6C
$GPGGA,185506.00,4245.442620,N,07129.285915,W,1,16,0.6,48.4,M,-32.9,M,,*63
$GPGGA,185507.00,4245.441667,N,07129.284478,W,1,16,0.6,48.4,M,-32.9,M,,*65
$GPGGA,185508.00,4245.441412,N,07129.282194,W,1,16,0.6,48.4,M,-32.9,M,,*6B
$GPGGA,185509.00,4245.441217,N,07129.281988,W,1,16,0.6,48.3,M,-32.9,M,,*68
$GPGGA,185510.00,4245.441491,N,07129.282924,W,1,16,0.6,48.3,M,-32.9,M,,*6D
$GPGGA,185511.00,4245.441464,N,07129.283045,W,1,16,0.6,48.3,M,-32.9,M,,*69
$GPGGA,185512.00,4245.441452,N,07129.283425,W,1,16,0.6,48.3,M,-32.9,M,,*6D
$GPGGA,185513.00,4245.441554,N,07129.280706,W,1,16,0.6,48.3,M,-32.9,M,,*6A
$GPGGA,185514.00,4245.441580,N,07129.281225,W,1,16,0.6,48.3,M,-32.9,M,,*61
$GPGGA,185515.00,4245.441954,N,07129.282122,W,1,16,0.6,48.2,M,-32.9,M,,*63
$GPGGA,185516.00,4245.440593,N,07129.282618,W,1,16,0.6,48.2,M,-32.9,M,,*68
$GPGGA,185517.00,4245.439973,N,07129.282631,W,1,16,0.6,48.2,M,-32.9,M,,*6E
$GPGGA,185518.00,4245.439283,N,07129.282724,W,1,16,0.6,48.2,M,-32.9,M,,*60
$GPGGA,185519.00,4245.438906,N,07129.283388,W,1,16,0.6,48.2,M,-32.9,M,,*65
$GPGGA,185520.00,4245.436457,N,07129.283772,W,1,16,0.6,48.1,M,-32.9,M,,*6A
$GPGGA,185521.00,4245.435162,N,07129.284791,W,1,16,0.6,48.1,M,-32.9,M,,*61
$GPGGA,185522.00,4245.434834,N,07129.285708,W,1,16,0.6,48.1,M,-32.9,M,,*68
$GPGGA,185523.00,4245.434880,N,07129.285243,W,1,16,0.6,48.0,M,-32.9,M,,*6D
$GPGGA,185524.00,4245.433950,N,07129.286113,W,1,16,0.6,47.9,M,-32.9,M,,*62
$GPGGA,185525.00,4245.433266,N,07129.286551,W,1,16,0.6,47.9,M,-32.9,M,,*6F
$GPGGA,185526.00,4245.432384,N,07129.287184,W,1,16,0.6,47.9,M,-32.9,M,,*6D
$GPGGA,185527.00,4245.432138,N,07129.287828,W,1,16,0.6,47.9,M,-32.9,M,,*66
$GPGGA,185528.00,4245.432893,N,07129.287866,W,1,16,0.6,47.9,M,-32.9,M,,*6B
$GPGGA,185529.00,4245.431720,N,07129.288858,W,1,16,0.6,47.9,M,-32.9,M,,*6C
$GPGGA,185530.00,4245.431267,N,07129.290386,W,1,16,0.6,47.9,M,-32.9,M,,*63
$GPGGA,185531.00,4245.431112,N,07129.292147,W,1,16,0.6,47.9,M,-32.9,M,,*6E
$GPGGA,185532.00,4245.430730,N,07129.293630,W,1,16,0.6,47.9,M,-32.9,M,,*6C
$GPGGA,185533.00,4245.430454,N,07129.293743,W,1,16,0.6,47.9,M,-32.9,M,,*69
$GPGGA,185534.00,4245.430302,N,07129.292519,W,1,16,0.6,47.9,M,-32.9,M,,*66
$GPGGA,185535.00,4245.431215,N,07129.294655,W,1,16,0.6,47.9,M,-32.9,M,,*6C
$GPGGA,185536.00,4245.431144,N,07129.293306,W,1,16,0.6,47.9,M,-32.9,M,,*6C
$GPGGA,185537.00,4245.431138,N,07129.294780,W,1,16,0.6,47.9,M,-32.9,M,,*6B
$GPGGA,185538.00,4245.429936,N,07129.295668,W,1,16,0.6,47.9,M,-32.9,M,,*6D
$GPGGA,185539.00,4245.429766,N,07129.296695,W,1,16,0.6,47.9,M,-32.9,M,,*66
$GPGGA,185540.00,4245.428493,N,07129.298123,W,1,16,0.6,47.9,M,-32.9,M,,*64
$GPGGA,185541.00,4245.427834,N,07129.299917,W,1,16,0.6,47.8,M,-32.9,M,,*64
$GPGGA,185542.00,4245.428832,N,07129.300481,W,1,16,0.6,47.7,M,-32.9,M,,*62
$GPGGA,185543.00,4245.428211,N,07129.301084,W,1,16,0.6,47.7,M,-32.9,M,,*68
$GPGGA,185544.00,4245.428368,N,07129.303686,W,1,16,0.6,47.6,M,-32.9,M,,*67
$GPGGA,185545.00,4245.427912,N,07129.304703,W,1,16,0.6,47.5,M,-32.9,M,,*66
$GPGGA,185546.00,4245.427487,N,07129.305465,W,1,16,0.4,47.5,M,-32.9,M,,*64
$GPGGA,185547.00,4245.427266,N,07129.307393,W,1,16,0.4,47.4,M,-32.9,M,,*61
$GPGGA,185548.00,4245.426790,N,07129.307796,W,1,16,0.4,47.4,M,-32.9,M,,*62
$GPGGA,185549.00,4245.426360,N,07129.307454,W,1,16,0.4,47.3,M,-32.9,M,,*62
$GPGGA,185550.00,4245.426772,N,07129.308037,W,1,16,0.4,47.2,M,-32.9,M,,*62
$GPGGA,185551.00,4245.426194,N,07129.309903,W,1,16,0.4,47.1,M,-32.9,M,,*61
$GPGGA,185552.00,4245.426264,N,07129.311032,W,1,16,0.4,47.0,M,-32.9,M,,*6D
$GPGGA,185553.00,4245.425552,N,07129.312512,W,1,16,0.4,47.0,M,-32.9,M,,*69
$GPGGA,185554.00,4245.424669,N,07129.313338,W,1,16,0.6,46.9,M,-32.9,M,,*61
$GPGGA,185555.00,4245.424012,N,07129.314068,W,1,16,0.6,46.9,M,-32.9,M,,*6B
$GPGGA,185556.00,4245.423416,N,07129.314768,W,1,16,0.6,46.9,M,-32.9,M,,*68
$GPGGA,185557.00,4245.423548,N,07129.313855,W,1,16,0.6,46.9,M,-32.9,M,,*65
$GPGGA,185558.00,4245.422942,N,07129.316147,W,1,16,0.6,47.0,M,-32.9,M,,*6A
$GPGGA,185559.00,4245.422317,N,07129.317776,W,1,16,0.6,46.9,M,-32.9,M,,*6C
$GPGGA,185600.00,4245.421499,N,07129.318674,W,1,16,0.6,46.9,M,-32.9,M,,*6D
$GPGGA,185601.00,4245.420897,N,07129.320512,W,1,16,0.6,46.9,M,-32.9,M,,*67
$GPGGA,185602.00,4245.420747,N,07129.320875,W,1,16,0.6,46.8,M,-32.9,M,,*6B
$GPGGA,185603.00,4245.420452,N,07129.321639,W,1,16,0.6,46.8,M,-32.9,M,,*6A
$GPGGA,185604.00,4245.420344,N,07129.322896,W,1,16,0.6,46.8,M,-32.9,M,,*65
$GPGGA,185605.00,4245.420329,N,07129.324524,W,1,16,0.6,46.8,M,-32.9,M,,*6D
$GPGGA,185606.00,4245.420719,N,07129.326050,W,1,16,0.6,46.8,M,-32.9,M,,*6D
$GPGGA,185607.00,4245.420886,N,07129.327664,W,1,16,0.6,46.7,M,-32.9,M,,*6A
$GPGGA,185608.00,4245.420907,N,07129.327421,W,1,16,0.6,46.7,M,-32.9,M,,*6E
$GPGGA,185609.00,4245.420935,N,07129.327228,W,1,16,0.6,46.7,M,-32.9,M,,*61
$GPGGA,185610.00,4245.421488,N,07129.328498,W,1,16,0.6,46.7,M,-32.9,M,,*61
$GPGGA,185611.00,4245.421795,N,07129.328837,W,1,16,0.6,46.8,M,-32.9,M,,*69
$GPGGA,185612.00,4245.421380,N,07129.329457,W,1,16,0.6,46.9,M,-32.9,M,,*60
$GPGGA,185613.00,4245.420894,N,07129.329564,W,1,16,0.6,47.1,M,-32.9,M,,*66
$GPGGA,185614.00,4245.420761,N,07129.330475,W,1,16,0.6,47.2,M,-32.9,M,,*6E
$GPGGA,185615.00,4245.420308,N,07129.331057,W,1,16,0.6,47.4,M,-32.9,M,,*67
$GPGGA,185616.00,4245.419878,N,07129.332029,W,1,16,0.6,47.5,M,-32.9,M,,*69
$GPGGA,185617.00,4245.419268,N,07129.332392,W,1,16,0.6,47.7,M,-32.9,M,,*62
$GPGGA,185618.00,4245.418163,N,07129.333184,W,1,16,0.6,47.7,M,-32.9,M,,*60
$GPGGA,185619.00,4245.417064,N,07129.335031,W,1,16,0.6,47.8,M,-32.9,M,,*6E
$GPGGA,185620.00,4245.417178,N,07129.335617,W,1,16,0.6,47.8,M,-32.9,M,,*6A
$GPGGA,185621.00,4245.417173,N,07129.335448,W,1,16,0.6,47.9,M,-32.9,M,,*69
$GPGGA,185622.00,4245.416178,N,07129.336305,W,1,16,0.6,48.0,M,-32.9,M,,*6B
$GPGGA,185623.00,4245.415979,N,07129.336762,W,1,16,0.6,48.1,M,-32.9,M,,*64
$GPGGA,185624.00,4245.415624,N,07129.337438,W,1,16,0.6,48.3,M,-32.9,M,,*6B
$GPGGA,185625.00,4245.415234,N,07129.338656,W,1,16,0.6,48.3,M,-32.9,M,,*6A
$GPGGA,185626.00,4245.414841,N,07129.340790,W,1,16,0.6,48.4,M,-32.9,M,,*63
$GPGGA,185627.00,4245.414896,N,07129.341568,W,1,16,0.6,48.5,M,-32.9,M,,*6D
$GPGGA,185628.00,4245.414776,N,07129.343748,W,1,16,0.6,48.5,M,-32.9,M,,*61
$GPGGA,185629.00,4245.415164,N,07129.346267,W,1,16,0.6,48.6,M,-32.9,M,,*6A
$GPGGA,185630.00,4245.414812,N,07129.348802,W,1,16,0.6,48.6,M,-32.9,M,,*6C
$GPGGA,185631.00,4245.415002,N,07129.349462,W,1,16,0.6,48.7,M,-32.9,M,,*6F
$GPGGA,185632.00,4245.415031,N,07129.350622,W,1,16,0.6,48.8,M,-32.9,M,,*6D
$GPGGA,185633.00,4245.414873,N,07129.352013,W,1,16,0.6,48.8,M,-32.9,M,,*65
$GPGGA,185634.00,4245.414401,N,07129.353222,W,1,16,0.6,48.8,M,-32.9,M,,*6A
$GPGGA,185635.00,4245.414292,N,07129.353210,W,1,16,0.6,48.8,M,-32.9,M,,*66
$GPGGA,185636.00,4245.414782,N,07129.353449,W,1,16,0.6,48.8,M,-32.9,M,,*6B
$GPGGA,185637.00,4245.414478,N,07129.354099,W,1,16,0.6,48.9,M,-32.9,M,,*63
$GPGGA,185638.00,4245.414461,N,07129.354414,W,1,16,0.6,49.0,M,-32.9,M,,*6D
$GPGGA,185639.00,4245.414247,N,07129.355278,W,1,16,0.6,49.0,M,-32.9,M,,*63
$GPGGA,185640.00,4245.413764,N,07129.355624,W,1,16,0.6,49.1,M,-32.9,M,,*62
$GPGGA,185641.00,4245.412863,N,07129.357756,W,1,16,0.6,49.1,M,-32.9,M,,*6C
$GPGGA,185642.00,4245.412678,N,07129.356910,W,1,16,0.6,49.1,M,-32.9,M,,*66
$GPGGA,185643.00,4245.412304,N,07129.358266,W,1,16,0.6,49.2,M,-32.9,M,,*6E
$GPGGA,185644.00,4245.411596,N,07129.359649,W,1,16,0.6,49.1,M,-32.9,M,,*6C
$GPGGA,185645.00,4245.411171,N,07129.360158,W,1,16,0.6,49.1,M,-32.9,M,,*6D
$GPGGA,185646.00,4245.410111,N,07129.361638,W,1,16,0.6,49.2,M,-32.9,M,,*6A
$GPGGA,185647.00,4245.408761,N,07129.363331,W,1,16,0.6,49.2,M,-32.9,M,,*6D
$GPGGA,185648.00,4245.408316,N,07129.364612,W,1,16,0.6,49.2,M,-32.9,M,,*65
$GPGGA,185649.00,4245.407745,N,07129.365080,W,1,16,0.6,49.3,M,-32.9,M,,*64
$GPGGA,185650.00,4245.407227,N,07129.365023,W,1,16,0.4,49.3,M,-32.9,M,,*66
$GPGGA,185651.00,4245.407464,N,07129.365905,W,1,16,0.4,49.3,M,-32.9,M,,*6B
$GPGGA,185652.00,4245.406375,N,07129.366953,W,1,16,0.4,49.3,M,-32.9,M,,*6E
$GPGGA,185653.00,4245.406293,N,07129.367824,W,1,16,0.4,49.3,M,-32.9,M,,*66
$GPGGA,185654.00,4245.406487,N,07129.368634,W,1,16,0.4,49.4,M,-32.9,M,,*65
$GPGGA,185655.00,4245.406127,N,07129.369794,W,1,16,0.4,49.4,M,-32.9,M,,*61
$GPGGA,185656.00,4245.406579,N,07129.370086,W,1,16,0.4,49.5,M,-32.9,M,,*60
$GPGGA,185657.00,4245.406548,N,07129.370909,W,1,16,0.4,49.6,M,-32.9,M,,*6E
$GPGGA,185658.00,4245.405941,N,07129.372686,W,1,16,0.4,49.6,M,-32.9,M,,*6D
$GPGGA,185659.00,4245.405412,N,07129.373685,W,1,16,0.4,49.7,M,-32.9,M,,*64
$GPGGA,185700.00,4245.405346,N,07129.373526,W,1,16,0.4,49.8,M,-32.9,M,,*6A
$GPGGA,185701.00,4245.405727,N,07129.373318,W,1,16,0.4,49.9,M,-32.9,M,,*62
$GPGGA,185702.00,4245.405089,N,07129.374855,W,1,16,0.6,50.0,M,-32.9,M,,*64
$GPGGA,185703.00,4245.403454,N,07129.376518,W,1,16,0.6,50.0,M,-32.9,M,,*61
$GPGGA,185704.00,4245.402877,N,07129.377773,W,1,16,0.6,50.1,M,-32.9,M,,*65
$GPGGA,185705.00,4245.402654,N,07129.379604,W,1,16,0.6,50.1,M,-32.9,M,,*64
$GPGGA,185706.00,4245.402789,N,07129.379426,W,1,16,0.4,50.1,M,-32.9,M,,*66
$GPGGA,185707.00,4245.402756,N,07129.380947,W,1,16,0.4,50.1,M,-32.9,M,,*69
$GPGGA,185708.00,4245.402259,N,07129.383023,W,1,16,0.4,50.1,M,-32.9,M,,*64
$GPGGA,185709.00,4245.402057,N,07129.381694,W,1,16,0.4,50.1,M,-32.9,M,,*61
$GPGGA,185710.00,,,,,0,16,6.4,49.9,M,-32.9,M,,*48
$GPGGA,185711.00,4245.401153,N,07129.384453,W,1,16,0.6,49.9,M,-32.9,M,,*60
$GPGGA,185712.00,4245.401022,N,07129.385384,W,1,16,0.6,49.9,M,-32.9,M,,*68
$GPGGA,185713.00,4245.400060,N,07129.385881,W,1,15,0.6,49.9,M,-32.9,M,,*63
$GPGGA,185714.00,4245.399588,N,07129.387252,W,1,16,0.6,50.0,M,-32.9,M,,*64
$GPGGA,185715.00,4245.399306,N,07129.386814,W,1,16,0.6,50.0,M,-32.9,M,,*6C
$GPGGA,185716.00,4245.399352,N,07129.388141,W,1,16,0.6,50.0,M,-32.9,M,,*69
$GPGGA,185717.00,4245.398907,N,07129.390043,W,1,16,0.6,50.0,M,-32.9,M,,*69
$GPGGA,185718.00,4245.399098,N,07129.390261,W,1,16,0.6,50.0,M,-32.9,M,,*6A
$GPGGA,185719.00,4245.398626,N,07129.391427,W,1,16,0.6,50.0,M,-32.9,M,,*6C
$GPGGA,185720.00,4245.397959,N,07129.392475,W,1,16,0.6,50.1,M,-32.9,M,,*6B
$GPGGA,185721.00,4245.396705,N,07129.393755,W,1,16,0.6,50.1,M,-32.9,M,,*6C
$GPGGA,185722.00,4245.397098,N,07129.394577,W,1,16,0.6,50.1,M,-32.9,M,,*68
$GPGGA,185723.00,4245.396532,N,07129.394742,W,1,16,0.6,50.1,M,-32.9,M,,*69
$GPGGA,185724.00,4245.395883,N,07129.395117,W,1,16,0.6,50.1,M,-32.9,M,,*6D
$GPGGA,185725.00,4245.395648,N,07129.395648,W,1,16,0.6,50.1,M,-32.9,M,,*68
$GPGGA,185726.00,4245.395182,N,07129.397391,W,1,16,0.6,50.1,M,-32.9,M,,*69
$GPGGA,185727.00,4245.394665,N,07129.398471,W,1,16,0.6,50.1,M,-32.9,M,,*61
$GPGGA,185728.00,4245.395589,N,07129.398564,W,1,16,0.6,50.1,M,-32.9,M,,*6B
$GPGGA,185729.00,4245.396812,N,07129.400616,W,1,16,0.6,50.1,M,-32.9,M,,*66
$GPGGA,185730.00,4245.396303,N,07129.399988,W,1,16,0.6,50.1,M,-32.9,M,,*6A
$GPGGA,185731.00,4245.396002,N,07129.402625,W,1,16,0.6,50.1,M,-32.9,M,,*64
$GPGGA,185732.00,4245.394985,N,07129.404787,W,1,16,0.6,50.1,M,-32.9,M,,*6C
$GPGGA,185733.00,4245.393222,N,07129.407026,W,1,16,0.6,50.1,M,-32.9,M,,*63
$GPGGA,185734.00,4245.392439,N,07129.408350,W,1,16,0.6,50.0,M,-32.9,M,,*65
$GPGGA,185735.00,4245.392136,N,07129.409589,W,1,16,0.6,50.0,M,-32.9,M,,*6D
$GPGGA,185736.00,4245.391887,N,07129.410037,W,1,16,0.6,49.9,M,-32.9,M,,*67
$GPGGA,185737.00,4245.391483,N,07129.410729,W,1,16,0.6,49.9,M,-32.9,M,,*66
$GPGGA,185738.00,4245.391251,N,07129.411588,W,1,16,0.6,49.8,M,-32.9,M,,*69
$GPGGA,185739.00,4245.390917,N,07129.414137,W,1,16,0.6,49.7,M,-32.9,M,,*6A
$GPGGA,185740.00,4245.390480,N,07129.413879,W,1,16,0.6,49.7,M,-32.9,M,,*63
$GPGGA,185741.00,4245.389345,N,07129.414684,W,1,16,0.6,49.6,M,-32.9,M,,*6E
$GPGGA,185742.00,4245.389047,N,07129.415652,W,1,16,0.6,49.6,M,-32.9,M,,*66
$GPGGA,185743.00,4245.389026,N,07129.416824,W,1,16,0.6,49.6,M,-32.9,M,,*6C
$GPGGA,185744.00,4245.389204,N,07129.415966,W,1,16,0.6,49.6,M,-32.9,M,,*6D
$GPGGA,185745.00,4245.388419,N,07129.418192,W,1,16,0.6,49.6,M,-32.9,M,,*69
$GPGGA,185746.00,4245.388268,N,07129.419518,W,1,16,0.6,49.6,M,-32.9,M,,*6D
$GPGGA,185747.00,4245.388486,N,07129.419451,W,1,16,0.6,49.7,M,-32.9,M,,*67
$GPGGA,185748.00,4245.388545,N,07129.421106,W,1,16,0.6,49.7,M,-32.9,M,,*6A
$GPGGA,185749.00,4245.388571,N,07129.422136,W,1,16,0.6,49.8,M,-32.9,M,,*63
$GPGGA,185750.00,4245.388293,N,07129.422478,W,1,16,0.6,50.0,M,-32.9,M,,*6F
$GPGGA,185751.00,4245.388302,N,07129.423449,W,1,16,0.6,50.1,M,-32.9,M,,*65
$GPGGA,185752.00,4245.389058,N,07129.423931,W,1,16,0.6,50.2,M,-32.9,M,,*6A
$GPGGA,185753.00,4245.389085,N,07129.425079,W,1,16,0.6,50.3,M,-32.9,M,,*69
$GPGGA,185754.00,4245.389011,N,07129.424662,W,1,16,0.6,50.4,M,-32.9,M,,*69
$GPGGA,185755.00,4245.389721,N,07129.426458,W,1,16,0.6,50.5,M,-32.9,M,,*64
$GPGGA,185756.00,4245.390327,N,07129.427397,W,1,16,0.6,50.6,M,-32.9,M,,*6B
$GPGGA,185757.00,4245.390633,N,07129.428397,W,1,16,0.6,50.7,M,-32.9,M,,*64
$GPGGA,185758.00,4245.390889,N,07129.430076,W,1,16,0.6,50.8,M,-32.9,M,,*6E
$GPGGA,185759.00,4245.391154,N,07129.429406,W,1,16,0.6,50.9,M,-32.9,M,,*6D
$GPGGA,185800.00,4245.391145,N,07129.431349,W,1,16,0.6,50.9,M,-32.9,M,,*6B
$GPGGA,185801.00,4245.391594,N,07129.431127,W,1,16,0.6,51.0,M,-32.9,M,,*60
$GPGGA,185802.00,4245.391283,N,07129.431518,W,1,16,0.4,51.1,M,-32.9,M,,*69
$GPGGA,185803.00,4245.391156,N,07129.430532,W,1,16,0.4,51.3,M,-32.9,M,,*68
$GPGGA,185804.00,4245.391591,N,07129.430203,W,1,16,0.4,51.4,M,-32.9,M,,*62
$GPGGA,185805.00,4245.391826,N,07129.431228,W,1,16,0.4,51.5,M,-32.9,M,,*6B
$GPGGA,185806.00,4245.391798,N,07129.431634,W,1,16,0.4,51.6,M,-32.9,M,,*68
$GPGGA,185807.00,4245.392968,N,07129.432624,W,1,16,0.4,51.8,M,-32.9,M,,*67
$GPGGA,185808.00,4245.394271,N,07129.433587,W,1,16,0.4,51.9,M,-32.9,M,,*67
$GPGGA,185809.00,4245.395476,N,07129.432909,W,1,16,0.4,52.1,M,-32.9,M,,*66
$GPGGA,185810.00,4245.396426,N,07129.433313,W,1,16,0.4,52.2,M,-32.9,M,,*6B
$GPGGA,185811.00,4245.398217,N,07129.433350,W,1,16,0.4,52.3,M,-32.9,M,,*66
$GPGGA,185812.00,4245.400234,N,07129.434481,W,1,16,0.4,52.4,M,-32.9,M,,*69
$GPGGA,185813.00,4245.400594,N,07129.434933,W,1,16,0.4,52.4,M,-32.9,M,,*61
$GPGGA,185814.00,4245.402697,N,07129.434926,W,1,16,0.6,52.5,M,-32.9,M,,*63
$GPGGA,185815.00,4245.402627,N,07129.434920,W,1,16,0.6,52.6,M,-32.9,M,,*6C
$GPGGA,185816.00,4245.404043,N,07129.434593,W,1,16,0.6,52.7,M,-32.9,M,,*68
$GPGGA,185817.00,4245.403654,N,07129.434221,W,1,16,0.6,52.8,M,-32.9,M,,*6F
$GPGGA,185818.00,4245.403427,N,07129.434046,W,1,16,0.6,52.9,M,-32.9,M,,*64
$GPGGA,185819.00,4245.403617,N,07129.434370,W,1,16,0.6,53.0,M,-32.9,M,,*6A
$GPGGA,185820.00,4245.404017,N,07129.433974,W,1,16,0.6,53.1,M,-32.9,M,,*69
$GPGGA,185821.00,4245.406336,N,07129.433875,W,1,16,0.6,53.3,M,-32.9,M,,*68
$GPGGA,185822.00,4245.407950,N,07129.434489,W,1,16,0.6,53.4,M,-32.9,M,,*6F
$GPGGA,185823.00,4245.408906,N,07129.434251,W,1,16,0.6,53.5,M,-32.9,M,,*60
$GPGGA,185824.00,4245.408950,N,07129.434016,W,1,16,0.6,53.7,M,-32.9,M,,*67
$GPGGA,185825.00,4245.409757,N,07129.433468,W,1,16,0.6,53.8,M,-32.9,M,,*6B
$GPGGA,185826.00,4245.410858,N,07129.433605,W,1,16,0.6,53.9,M,-32.9,M,,*68
$GPGGA,185827.00,4245.411467,N,07129.433858,W,1,16,0.6,53.9,M,-32.9,M,,*6E
$GPGGA,185828.00,4245.411989,N,07129.433552,W,1,16,0.6,54.0,M,-32.9,M,,*65
$GPGGA,185829.00,4245.412812,N,07129.432931,W,1,16,0.6,54.1,M,-32.9,M,,*6D
$GPGGA,185830.00,4245.413474,N,07129.433106,W,1,16,0.6,54.2,M,-32.9,M,,*66
$GPGGA,185831.00,4245.413816,N,07129.432884,W,1,16,0.6,54.3,M,-32.9,M,,*6C
$GPGGA,185832.00,4245.415050,N,07129.432450,W,1,16,0.6,54.3,M,-32.9,M,,*66
$GPGGA,185833.00,4245.415084,N,07129.432807,W,1,16,0.6,54.4,M,-32.9,M,,*67
$GPGGA,185834.00,4245.416150,N,07129.431674,W,1,16,0.6,54.4,M,-32.9,M,,*62
$GPGGA,185835.00,4245.416631,N,07129.431724,W,1,16,0.6,54.5,M,-32.9,M,,*66
$GPGGA,185836.00,4245.417377,N,07129.431143,W,1,16,0.6,54.5,M,-32.9,M,,*64
$GPGGA,185837.00,4245.418597,N,07129.430949,W,1,16,0.6,54.5,M,-32.9,M,,*61
$GPGGA,185838.00,4245.419262,N,07129.430651,W,1,16,0.6,54.6,M,-32.9,M,,*67
$GPGGA,185839.00,4245.419139,N,07129.430825,W,1,16,0.6,54.7,M,-32.9,M,,*67
$GPGGA,185840.00,4245.419322,N,07129.430692,W,1,16,0.6,54.8,M,-32.9,M,,*6C
$GPGGA,185841.00,4245.420064,N,07129.429694,W,1,15,0.6,54.9,M,-32.9,M,,*6A
$GPGGA,185842.00,4245.420041,N,07129.430295,W,1,16,0.4,55.0,M,-32.9,M,,*6A
$GPGGA,185843.00,4245.420480,N,07129.429953,W,1,16,0.4,55.2,M,-32.9,M,,*69
$GPGGA,185844.00,4245.420859,N,07129.428390,W,1,16,0.4,55.3,M,-32.9,M,,*63
$GPGGA,185845.00,4245.423199,N,07129.428361,W,1,16,0.4,55.4,M,-32.9,M,,*6D
$GPGGA,185846.00,4245.424456,N,07129.427260,W,1,16,0.6,55.5,M,-32.9,M,,*63
$GPGGA,185847.00,4245.425512,N,07129.426130,W,1,16,0.6,55.6,M,-32.9,M,,*66
$GPGGA,185848.00,4245.425931,N,07129.425143,W,1,16,0.6,55.7,M,-32.9,M,,*62
$GPGGA,185849.00,4245.426564,N,07129.423821,W,1,16,0.6,55.8,M,-32.9,M,,*68
$GPGGA,185850.00,4245.427391,N,07129.423269,W,1,16,0.6,55.9,M,-32.9,M,,*6A
$GPGGA,185851.00,4245.428196,N,07129.422004,W,1,16,0.6,56.0,M,-32.9,M,,*63
$GPGGA,185852.00,4245.428406,N,07129.420536,W,1,16,0.6,56.1,M,-32.9,M,,*6B
$GPGGA,185853.00,4245.428102,N,07129.419666,W,1,16,0.6,56.1,M,-32.9,M,,*67
$GPGGA,185854.00,4245.427979,N,07129.419385,W,1,16,0.6,56.2,M,-32.9,M,,*60
$GPGGA,185855.00,4245.428810,N,07129.417894,W,1,16,0.6,56.3,M,-32.9,M,,*64
$GPGGA,185856.00,4245.429063,N,07129.417668,W,1,16,0.6,56.3,M,-32.9,M,,*67
$GPGGA,185857.00,4245.429480,N,07129.414838,W,1,16,0.6,56.3,M,-32.9,M,,*67
$GPGGA,185858.00,4245.428994,N,07129.415007,W,1,16,0.6,56.4,M,-32.9,M,,*63
$GPGGA,185859.00,4245.428189,N,07129.415274,W,1,16,0.6,56.4,M,-32.9,M,,*60
$GPGGA,185900.00,4245.428506,N,07129.415175,W,1,16,0.6,56.3,M,-32.9,M,,*6B
$GPGGA,185901.00,4245.429610,N,07129.413765,W,1,16,0.6,56.3,M,-32.9,M,,*6E
$GPGGA,185902.00,4245.431097,N,07129.412206,W,1,16,0.6,56.4,M,-32.9,M,,*6B
$GPGGA,185903.00,4245.430700,N,07129.411184,W,1,16,0.6,56.4,M,-32.9,M,,*68
$GPGGA,185904.00,4245.430658,N,07129.410856,W,1,16,0.6,56.4,M,-32.9,M,,*64
$GPGGA,185905.00,4245.430297,N,07129.409815,W,1,16,0.6,56.4,M,-32.9,M,,*6D
$GPGGA,185906.00,4245.430320,N,07129.409049,W,1,16,0.6,56.5,M,-32.9,M,,*63
$GPGGA,185907.00,4245.430714,N,07129.408282,W,1,16,0.6,56.5,M,-32.9,M,,*65
$GPGGA,185908.00,4245.431237,N,07129.407338,W,1,16,0.6,56.6,M,-32.9,M,,*63
$GPGGA,185909.00,4245.431669,N,07129.405904,W,1,16,0.6,56.6,M,-32.9,M,,*6A
