$GSSIS,20,-1
$GPGGA,175306.00,4245.43847,N,07129.42014,W,1,08,1.31,48.7,M,-33.0,M,,*50
$GSSIS,207,-1
$GPGGA,175308.00,4245.43844,N,07129.42016,W,1,08,1.31,48.5,M,-33.0,M,,*5D
$GSSIS,210,-1
$GPGGA,175310.00,4245.43893,N,07129.42013,W,1,08,1.79,48.2,M,-33.0,M,,*50
$GSSIS,285,-1
$GPGGA,175312.00,4245.43974,N,07129.41988,W,1,08,1.31,48.5,M,-33.0,M,,*59
$GSSIS,380,-1
$GPGGA,175313.00,4245.44017,N,07129.41978,W,1,08,1.31,48.0,M,-33.0,M,,*59
$GSSIS,475,-1
$GPGGA,175314.00,4245.44059,N,07129.41968,W,1,08,1.31,48.1,M,-33.0,M,,*54
$GSSIS,575,-1
$GPGGA,175315.00,4245.44112,N,07129.41964,W,1,08,1.31,48.2,M,-33.0,M,,*54
$GSSIS,678,-1
$GPGGA,175316.00,4245.44165,N,07129.41963,W,1,08,1.31,48.2,M,-33.0,M,,*50
$GSSIS,769,-1
$GPGGA,175317.00,4245.44213,N,07129.41960,W,1,08,1.31,48.1,M,-33.0,M,,*53
$GSSIS,865,-1
$GPGGA,175318.00,4245.44265,N,07129.41949,W,1,08,1.31,47.9,M,-33.0,M,,*51
$GSSIS,967,-1
$GPGGA,175319.00,4245.44316,N,07129.41935,W,1,08,1.31,47.9,M,-33.0,M,,*5E
$GSSIS,1060,-1
$GPGGA,175320.00,4245.44373,N,07129.41929,W,1,08,1.31,47.8,M,-33.0,M,,*5B
$GSSIS,1122,-1
$GPGGA,175321.00,4245.44429,N,07129.41930,W,1,08,1.31,48.0,M,-33.0,M,,*5D
$GSSIS,1126,-1
$GPGGA,175322.00,4245.44439,N,07129.41930,W,1,07,1.68,47.8,M,-33.0,M,,*5B
$GSSIS,1176,-1
$GPGGA,175323.00,4245.44449,N,07129.41925,W,1,08,1.31,47.6,M,-33.0,M,,*54
$GSSIS,1421,-1
$GPGGA,175324.00,4245.44483,N,07129.41921,W,1,08,1.31,47.5,M,-33.0,M,,*52
$GSSIS,1424,-1
$GPGGA,175325.00,4245.44531,N,07129.41918,W,1,08,1.31,47.7,M,-33.0,M,,*53
$GSSIS,1677,-1
$GPGGA,175326.00,4245.44573,N,07129.41915,W,1,08,1.31,47.5,M,-33.0,M,,*59
$GSSIS,1682,-1
$GPGGA,175327.00,4245.44624,N,07129.41910,W,1,08,1.31,48.0,M,-33.0,M,,*56
$GSSIS,1734,-1
$GPGGA,175329.00,4245.44724,N,07129.41916,W,1,08,1.31,47.6,M,-33.0,M,,*56
$GSSIS,1835,-1
$GPGGA,175330.00,4245.44776,N,07129.41907,W,1,08,1.31,47.7,M,-33.0,M,,*58
$GSSIS,2177,-1
$GPGGA,175331.00,4245.44822,N,07129.41894,W,1,08,1.31,47.5,M,-33.0,M,,*5E
$GSSIS,2231,-1
$GPGGA,175333.00,4245.44926,N,07129.41877,W,1,08,1.31,47.6,M,-33.0,M,,*57
$GSSIS,2370,-1
$GPGGA,175341.00,4245.44998,N,07129.41862,W,1,08,1.31,48.4,M,-33.0,M,,*5E
$GSSIS,2372,-1
$GPGGA,175342.00,4245.45009,N,07129.41865,W,1,08,1.31,48.4,M,-33.0,M,,*5A
$GSSIS,2423,-1
$GPGGA,175344.00,4245.45085,N,07129.41864,W,1,08,1.30,48.5,M,-33.0,M,,*59
$GSSIS,2520,-1
$GPGGA,175345.00,4245.45128,N,07129.41861,W,1,08,1.30,48.4,M,-33.0,M,,*5A
$GSSIS,2657,-1
$GPGGA,175346.00,4245.45180,N,07129.41856,W,1,08,1.30,48.4,M,-33.0,M,,*5F
$GSSIS,2659,-1
$GPGGA,175348.00,4245.45225,N,07129.41831,W,1,08,1.30,48.6,M,-33.0,M,,*5E
$GSSIS,2774,-1
$GPGGA,175401.00,4245.45114,N,07129.41836,W,1,08,1.30,49.0,M,-33.0,M,,*55
$GSSIS,2775,-1
$GPGGA,175402.00,4245.45163,N,07129.41836,W,1,08,1.30,48.9,M,-33.0,M,,*5E
$GSSIS,3031,-1
$GPGGA,175403.00,4245.45211,N,07129.41830,W,1,08,1.30,48.9,M,-33.0,M,,*5F
$GSSIS,3032,-1
$GPGGA,175404.00,4245.45264,N,07129.41822,W,1,08,1.30,48.9,M,-33.0,M,,*59
$GSSIS,3035,-1
$GPGGA,175405.00,4245.45315,N,07129.41821,W,1,08,1.30,48.8,M,-33.0,M,,*5D
$GSSIS,3118,-1
$GPGGA,175407.00,4245.45413,N,07129.41809,W,1,08,1.30,48.8,M,-33.0,M,,*54
$GSSIS,3219,-1
$GPGGA,175408.00,4245.45471,N,07129.41805,W,1,08,1.30,49.0,M,-33.0,M,,*5A
$GSSIS,3316,-1
$GPGGA,175409.00,4245.45525,N,07129.41804,W,1,08,1.30,48.8,M,-33.0,M,,*53
$GSSIS,3420,-1
$GPGGA,175410.00,4245.45576,N,07129.41809,W,1,08,1.30,48.7,M,-33.0,M,,*5F
$GSSIS,3519,-1
$GPGGA,175411.00,4245.45617,N,07129.41798,W,1,08,1.30,48.6,M,-33.0,M,,*5C
$GSSIS,3623,-1
$GPGGA,175412.00,4245.45667,N,07129.41789,W,1,08,1.30,48.8,M,-33.0,M,,*56
$GSSIS,3718,-1
$GPGGA,175413.00,4245.45730,N,07129.41791,W,1,08,1.30,48.9,M,-33.0,M,,*5C
$GSSIS,3819,-1
$GPGGA,175414.00,4245.45784,N,07129.41790,W,1,08,1.30,49.0,M,-33.0,M,,*5D
$GSSIS,3920,-1
$GPGGA,175415.00,4245.45829,N,07129.41787,W,1,08,1.30,48.7,M,-33.0,M,,*54
$GSSIS,4021,-1
$GPGGA,175416.00,4245.45878,N,07129.41784,W,1,08,1.30,48.5,M,-33.0,M,,*52
$GSSIS,4125,-1
$GPGGA,175417.00,4245.45910,N,07129.41769,W,1,08,1.30,48.2,M,-33.0,M,,*58
$GSSIS,4221,-1
$GPGGA,175418.00,4245.45961,N,07129.41771,W,1,08,1.30,48.1,M,-33.0,M,,*5B
$GSSIS,4530,-1
$GPGGA,175419.00,4245.46026,N,07129.41790,W,1,08,1.30,48.2,M,-33.0,M,,*5F
$GSSIS,4533,-1
$GPGGA,175420.00,4245.46082,N,07129.41801,W,1,08,1.30,48.1,M,-33.0,M,,*5F
$GSSIS,4809,-1
$GPGGA,175421.00,4245.46141,N,07129.41820,W,1,08,1.30,48.1,M,-33.0,M,,*53
$GSSIS,4810,-1
$GPGGA,175422.00,4245.46197,N,07129.41837,W,1,08,1.30,48.1,M,-33.0,M,,*5D
$GSSIS,4860,-1
$GPGGA,175424.00,4245.46317,N,07129.41829,W,1,08,1.30,48.0,M,-33.0,M,,*5F
$GSSIS,4958,-1
$GPGGA,175425.00,4245.46368,N,07129.41829,W,1,08,1.30,47.9,M,-33.0,M,,*50
$GSSIS,5320,-1
$GPGGA,175426.00,4245.46422,N,07129.41842,W,1,08,1.30,47.8,M,-33.0,M,,*56
$GSSIS,5321,-1
$GPGGA,175427.00,4245.46468,N,07129.41850,W,1,08,1.30,47.7,M,-33.0,M,,*55
$GSSIS,5618,-1
$GPGGA,175428.00,4245.46519,N,07129.41867,W,1,08,1.30,47.6,M,-33.0,M,,*58
$GSSIS,5622,-1
$GPGGA,175430.00,4245.46611,N,07129.41911,W,1,08,1.30,47.3,M,-33.0,M,,*5F
$GSSIS,5712,-1
$GPGGA,175432.00,4245.46723,N,07129.41987,W,1,08,1.30,47.4,M,-33.0,M,,*55
$GSSIS,5825,-1
$GPGGA,175433.00,4245.46762,N,07129.42035,W,1,08,1.30,47.4,M,-33.0,M,,*52
$GSSIS,6148,-1
$GPGGA,175434.00,4245.46806,N,07129.42101,W,1,08,1.30,47.6,M,-33.0,M,,*5C
$GSSIS,6438,-1
$GPGGA,175436.00,4245.46858,N,07129.42227,W,1,08,1.30,47.7,M,-33.0,M,,*53
$GSSIS,6439,-1
$GPGGA,175437.00,4245.46882,N,07129.42303,W,1,08,1.30,48.0,M,-33.0,M,,*5A
$GSSIS,6501,-1
$GPGGA,175439.00,4245.46921,N,07129.42463,W,1,08,1.30,47.1,M,-33.0,M,,*53
$GSSIS,6610,-1
$GPGGA,175440.00,4245.46943,N,07129.42551,W,1,08,1.30,46.9,M,-33.0,M,,*50
$GSSIS,6998,-1
$GPGGA,175441.00,4245.46979,N,07129.42609,W,1,08,1.30,45.7,M,-33.0,M,,*5B
$GSSIS,7044,-1
$GPGGA,175442.00,4245.46996,N,07129.42688,W,1,08,1.30,45.6,M,-33.0,M,,*51
$GSSIS,7046,-1
$GPGGA,175447.00,4245.47030,N,07129.42895,W,1,08,1.30,45.9,M,-33.0,M,,*5D
$GSSIS,7108,-1
$GPGGA,175448.00,4245.47034,N,07129.42923,W,1,08,1.30,45.9,M,-33.0,M,,*5A
$GSSIS,7364,-1
$GPGGA,175449.00,4245.47035,N,07129.42982,W,1,08,1.30,46.0,M,-33.0,M,,*5B
$GSSIS,7575,-1
$GPGGA,175451.00,4245.47055,N,07129.43123,W,1,08,1.30,46.5,M,-33.0,M,,*53
$GSSIS,7576,-1
$GPGGA,175452.00,4245.47066,N,07129.43189,W,1,08,1.30,46.0,M,-33.0,M,,*55
$GSSIS,7581,-1
$GPGGA,175453.00,4245.47069,N,07129.43245,W,1,08,1.30,46.0,M,-33.0,M,,*58
$GSSIS,7619,-1
$GPGGA,175454.00,4245.47076,N,07129.43296,W,1,08,1.30,45.9,M,-33.0,M,,*55
$GSSIS,7698,-1
$GPGGA,175455.00,4245.47101,N,07129.43348,W,1,08,1.30,45.9,M,-33.0,M,,*57
$GSSIS,8020,-1
$GPGGA,175456.00,4245.47124,N,07129.43410,W,1,08,1.30,45.7,M,-33.0,M,,*57
$GSSIS,8023,-1
$GPGGA,175457.00,4245.47156,N,07129.43459,W,1,08,1.30,45.7,M,-33.0,M,,*5E
$GSSIS,8344,-1
$GPGGA,175458.00,4245.47188,N,07129.43499,W,1,08,1.30,45.8,M,-33.0,M,,*51
$GSSIS,8346,-1
$GPGGA,175459.00,4245.47196,N,07129.43543,W,1,08,1.30,45.6,M,-33.0,M,,*57
$GSSIS,8350,-1
$GPGGA,175500.00,4245.47174,N,07129.43601,W,1,08,1.30,45.8,M,-33.0,M,,*5D
$GSSIS,8452,-1
$GPGGA,175502.00,4245.47058,N,07129.43659,W,1,08,1.30,46.5,M,-33.0,M,,*53
$GSSIS,8563,-1
$GPGGA,175503.00,4245.46986,N,07129.43668,W,1,08,1.30,46.6,M,-33.0,M,,*58
$GSSIS,8685,-1
$GPGGA,175504.00,4245.46915,N,07129.43675,W,1,08,1.30,47.1,M,-33.0,M,,*5F
$GSSIS,8815,-1
$GPGGA,175505.00,4245.46858,N,07129.43661,W,1,08,1.30,46.8,M,-33.0,M,,*5B
$GSSIS,8930,-1
$GPGGA,175506.00,4245.46784,N,07129.43659,W,1,08,1.30,47.4,M,-33.0,M,,*50
$GSSIS,9051,-1
$GPGGA,175507.00,4245.46721,N,07129.43632,W,1,08,1.30,47.3,M,-33.0,M,,*54
$GSSIS,9173,-1
$GPGGA,175508.00,4245.46661,N,07129.43618,W,1,08,1.30,47.3,M,-33.0,M,,*56
$GSSIS,9295,-1
$GPGGA,175509.00,4245.46594,N,07129.43612,W,1,08,1.30,47.7,M,-33.0,M,,*50
$GSSIS,9416,-1
$GPGGA,175510.00,4245.46525,N,07129.43606,W,1,08,1.30,47.8,M,-33.0,M,,*58
$GSSIS,9542,-1
$GPGGA,175511.00,4245.46458,N,07129.43606,W,1,08,1.30,47.8,M,-33.0,M,,*52
$GSSIS,9669,-1
$GPGGA,175512.00,4245.46390,N,07129.43609,W,1,08,1.30,47.8,M,-33.0,M,,*5D
$GSSIS,9796,-1
$GPGGA,175513.00,4245.46321,N,07129.43610,W,1,08,1.30,47.8,M,-33.0,M,,*5E
$GSSIS,9923,-1
$GPGGA,175514.00,4245.46244,N,07129.43609,W,1,08,1.30,48.2,M,-33.0,M,,*56
$GSSIS,10093,-1
$GPGGA,175515.00,4245.46175,N,07129.43604,W,1,08,1.30,48.2,M,-33.0,M,,*5B
$GSSIS,10182,-1
$GPGGA,175516.00,4245.46107,N,07129.43595,W,1,08,1.30,48.4,M,-33.0,M,,*50
$GSSIS,10309,-1
$GPGGA,175517.00,4245.46045,N,07129.43571,W,1,08,1.30,48.3,M,-33.0,M,,*5B
$GSSIS,10437,-1
$GPGGA,175518.00,4245.45985,N,07129.43554,W,1,08,1.30,48.1,M,-33.0,M,,*57
$GSSIS,10559,-1
$GPGGA,175519.00,4245.45921,N,07129.43534,W,1,08,1.30,47.6,M,-33.0,M,,*56
$GSSIS,10683,-1
$GPGGA,175520.00,4245.45854,N,07129.43534,W,1,08,1.30,47.6,M,-33.0,M,,*5F
$GSSIS,10814,-1
$GPGGA,175521.00,4245.45782,N,07129.43543,W,1,08,1.30,47.9,M,-33.0,M,,*55
$GSSIS,10948,-1
$GPGGA,175522.00,4245.45710,N,07129.43546,W,1,08,1.30,48.0,M,-33.0,M,,*5E
$GSSIS,11073,-1
$GPGGA,175523.00,4245.45639,N,07129.43531,W,1,08,1.30,47.9,M,-33.0,M,,*53
$GSSIS,11203,-1
$GPGGA,175524.00,4245.45565,N,07129.43514,W,1,08,1.30,47.8,M,-33.0,M,,*58
$GSSIS,11330,-1
$GPGGA,175525.00,4245.45500,N,07129.43508,W,1,08,1.30,47.9,M,-33.0,M,,*56
$GSSIS,11456,-1
$GPGGA,175526.00,4245.45434,N,07129.43511,W,1,08,1.30,48.2,M,-33.0,M,,*5F
$GSSIS,11577,-1
$GPGGA,175527.00,4245.45365,N,07129.43508,W,1,08,1.30,48.2,M,-33.0,M,,*55
$GSSIS,11701,-1
$GPGGA,175528.00,4245.45299,N,07129.43502,W,1,08,1.30,47.9,M,-33.0,M,,*56
$GSSIS,11831,-1
$GPGGA,175529.00,4245.45229,N,07129.43506,W,1,08,1.30,48.2,M,-33.0,M,,*5C
$GSSIS,11962,-1
$GPGGA,175530.00,4245.45162,N,07129.43509,W,1,08,1.30,48.3,M,-33.0,M,,*56
$GSSIS,12081,-1
$GPGGA,175531.00,4245.45089,N,07129.43513,W,1,08,1.30,48.7,M,-33.0,M,,*5C
$GSSIS,12204,-1
$GPGGA,175532.00,4245.45017,N,07129.43497,W,1,08,1.30,48.6,M,-33.0,M,,*54
$GSSIS,12333,-1
$GPGGA,175533.00,4245.44944,N,07129.43492,W,1,08,1.30,48.8,M,-33.0,M,,*50
$GSSIS,12453,-1
$GPGGA,175534.00,4245.44883,N,07129.43487,W,1,08,1.30,48.8,M,-33.0,M,,*59
$GSSIS,12575,-1
$GPGGA,175535.00,4245.44820,N,07129.43483,W,1,08,1.30,48.9,M,-33.0,M,,*54
$GSSIS,12700,-1
$GPGGA,175536.00,4245.44753,N,07129.43476,W,1,08,1.30,48.8,M,-33.0,M,,*57
$GSSIS,12817,-1
$GPGGA,175537.00,4245.44688,N,07129.43476,W,1,08,1.30,49.0,M,-33.0,M,,*58
$GSSIS,12934,-1
$GPGGA,175538.00,4245.44621,N,07129.43474,W,1,08,1.30,49.2,M,-33.0,M,,*54
$GSSIS,13058,-1
$GPGGA,175539.00,4245.44551,N,07129.43470,W,1,08,1.30,49.1,M,-33.0,M,,*56
$GSSIS,13178,-1
$GPGGA,175540.00,4245.44481,N,07129.43463,W,1,08,1.30,49.0,M,-33.0,M,,*57
$GSSIS,13300,-1
$GPGGA,175541.00,4245.44418,N,07129.43455,W,1,08,1.30,48.8,M,-33.0,M,,*5A
$GSSIS,13418,-1
$GPGGA,175542.00,4245.44353,N,07129.43463,W,1,08,1.30,49.2,M,-33.0,M,,*5F
$GSSIS,13539,-1
$GPGGA,175543.00,4245.44291,N,07129.43461,W,1,08,1.30,49.1,M,-33.0,M,,*50
$GSSIS,13658,-1
$GPGGA,175544.00,4245.44226,N,07129.43469,W,1,08,1.30,49.1,M,-33.0,M,,*53
$GSSIS,13762,-1
$GPGGA,175545.00,4245.44162,N,07129.43488,W,1,08,1.30,49.5,M,-33.0,M,,*5A
$GSSIS,13797,-1
$GPGGA,175546.00,4245.44127,N,07129.43491,W,1,08,1.30,49.5,M,-33.0,M,,*50
$GSSIS,13801,-1
$GPGGA,175547.00,4245.44116,N,07129.43496,W,1,08,1.30,49.6,M,-33.0,M,,*57
$GSSIS,13869,-1
$GPGGA,175548.00,4245.44096,N,07129.43498,W,1,08,1.30,49.8,M,-33.0,M,,*51
$GSSIS,13977,-1
$GPGGA,175549.00,4245.44047,N,07129.43494,W,1,08,1.30,49.8,M,-33.0,M,,*50
$GSSIS,14095,-1
$GPGGA,175550.00,4245.43988,N,07129.43490,W,1,08,1.30,49.6,M,-33.0,M,,*5F
$GSSIS,14218,-1
$GPGGA,175551.00,4245.43931,N,07129.43489,W,1,08,1.30,49.7,M,-33.0,M,,*55
$GSSIS,14340,-1
$GPGGA,175552.00,4245.43870,N,07129.43486,W,1,08,1.30,49.6,M,-33.0,M,,*5C
$GSSIS,14465,-1
$GPGGA,175553.00,4245.43805,N,07129.43494,W,1,08,1.30,49.6,M,-33.0,M,,*5C
$GSSIS,14593,-1
$GPGGA,175554.00,4245.43741,N,07129.43494,W,1,08,1.30,49.1,M,-33.0,M,,*53
$GSSIS,14720,-1
$GPGGA,175555.00,4245.43677,N,07129.43496,W,1,08,1.30,49.0,M,-33.0,M,,*55
$GSSIS,14842,-1
$GPGGA,175556.00,4245.43611,N,07129.43483,W,1,08,1.30,49.1,M,-33.0,M,,*53
$GSSIS,14964,-1
$GPGGA,175557.00,4245.43546,N,07129.43476,W,1,08,1.30,49.2,M,-33.0,M,,*5A
$GSSIS,15086,-1
$GPGGA,175558.00,4245.43473,N,07129.43472,W,1,08,1.30,49.6,M,-33.0,M,,*52
$GSSIS,15216,-1
$GPGGA,175559.00,4245.43401,N,07129.43467,W,1,08,1.30,49.8,M,-33.0,M,,*5C
$GSSIS,15345,-1
$GPGGA,175600.00,4245.43336,N,07129.43465,W,1,08,1.30,49.4,M,-33.0,M,,*5E
$GSSIS,15468,-1
$GPGGA,175601.00,4245.43268,N,07129.43459,W,1,08,1.30,49.6,M,-33.0,M,,*58
$GSSIS,15597,-1
$GPGGA,175602.00,4245.43203,N,07129.43455,W,1,08,1.30,49.2,M,-33.0,M,,*5E
$GSSIS,15717,-1
$GPGGA,175603.00,4245.43130,N,07129.43450,W,1,08,1.30,49.9,M,-33.0,M,,*52
$GSSIS,15838,-1
$GPGGA,175604.00,4245.43060,N,07129.43432,W,1,08,1.30,50.3,M,-33.0,M,,*57
$GSSIS,15959,-1
$GPGGA,175605.00,4245.42994,N,07129.43412,W,1,08,1.30,50.2,M,-33.0,M,,*56
$GSSIS,16081,-1
$GPGGA,175606.00,4245.42927,N,07129.43392,W,1,08,1.30,50.0,M,-33.0,M,,*50
$GSSIS,16208,-1
$GPGGA,175607.00,4245.42873,N,07129.43375,W,1,08,1.30,49.6,M,-33.0,M,,*56
$GSSIS,16334,-1
$GPGGA,175608.00,4245.42817,N,07129.43349,W,1,08,1.30,49.5,M,-33.0,M,,*57
$GSSIS,16458,-1
$GPGGA,175609.00,4245.42765,N,07129.43309,W,1,08,1.30,49.6,M,-33.0,M,,*5B
$GSSIS,16587,-1
$GPGGA,175610.00,4245.42720,N,07129.43263,W,1,08,1.30,49.6,M,-33.0,M,,*5F
$GSSIS,16721,-1
$GPGGA,175611.00,4245.42669,N,07129.43194,W,1,08,1.30,49.7,M,-33.0,M,,*58
$GSSIS,16855,-1
$GPGGA,175612.00,4245.42626,N,07129.43122,W,1,08,1.30,49.7,M,-33.0,M,,*5D
$GSSIS,17019,-1
$GPGGA,175613.00,4245.42592,N,07129.43041,W,1,08,1.30,50.1,M,-33.0,M,,*5A
$GSSIS,17095,-1
$GPGGA,175614.00,4245.42580,N,07129.42969,W,1,08,1.30,50.2,M,-33.0,M,,*5F
$GSSIS,17204,-1
$GPGGA,175615.00,4245.42574,N,07129.42899,W,1,08,1.30,50.6,M,-33.0,M,,*5F
$GSSIS,17325,-1
$GPGGA,175616.00,4245.42581,N,07129.42809,W,1,08,1.30,50.6,M,-33.0,M,,*5F
$GSSIS,17443,-1
$GPGGA,175617.00,4245.42586,N,07129.42713,W,1,08,1.30,50.5,M,-33.0,M,,*5E
$GSSIS,17535,-1
$GPGGA,175618.00,4245.42597,N,07129.42639,W,1,08,1.30,50.6,M,-33.0,M,,*5B
$GSSIS,17544,-1
$GPGGA,175619.00,4245.42603,N,07129.42612,W,1,08,1.30,50.6,M,-33.0,M,,*5D
$GSSIS,17553,-1
$GPGGA,175620.00,4245.42615,N,07129.42623,W,1,08,1.30,50.9,M,-33.0,M,,*5D
$GSSIS,17636,-1
$GPGGA,175621.00,4245.42632,N,07129.42573,W,1,08,1.30,50.6,M,-33.0,M,,*50
$GSSIS,17748,-1
$GPGGA,175622.00,4245.42646,N,07129.42496,W,1,08,1.30,50.2,M,-33.0,M,,*5E
$GSSIS,17871,-1
$GPGGA,175623.00,4245.42655,N,07129.42411,W,1,08,1.30,49.9,M,-33.0,M,,*51
$GSSIS,17985,-1
$GPGGA,175624.00,4245.42664,N,07129.42330,W,1,08,1.30,49.7,M,-33.0,M,,*5E
$GSSIS,18104,-1
$GPGGA,175625.00,4245.42679,N,07129.42244,W,1,08,1.30,50.0,M,-33.0,M,,*5E
$GSSIS,18215,-1
$GPGGA,175626.00,4245.42698,N,07129.42163,W,1,08,1.30,50.0,M,-33.0,M,,*54
$GSSIS,18335,-1
$GPGGA,175627.00,4245.42717,N,07129.42080,W,1,08,1.30,50.1,M,-33.0,M,,*5E
$GSSIS,18459,-1
$GPGGA,175628.00,4245.42742,N,07129.42005,W,1,08,1.30,50.2,M,-33.0,M,,*5F
$GSSIS,18583,-1
$GPGGA,175629.00,4245.42762,N,07129.41918,W,1,08,1.30,49.9,M,-33.0,M,,*59
$GSSIS,18711,-1
$GPGGA,175630.00,4245.42788,N,07129.41827,W,1,08,1.30,49.8,M,-33.0,M,,*59
$GSSIS,18840,-1
$GPGGA,175631.00,4245.42813,N,07129.41741,W,1,08,1.30,49.8,M,-33.0,M,,*5A
$GSSIS,18968,-1
$GPGGA,175632.00,4245.42818,N,07129.41641,W,1,08,1.30,49.8,M,-33.0,M,,*53
$GSSIS,19140,-1
$GPGGA,175633.00,4245.42834,N,07129.41542,W,1,08,1.30,50.0,M,-33.0,M,,*5C
$GSSIS,19228,-1
$GPGGA,175634.00,4245.42852,N,07129.41444,W,1,08,1.30,50.1,M,-33.0,M,,*5D
$GSSIS,19352,-1
$GPGGA,175635.00,4245.42877,N,07129.41350,W,1,08,1.30,50.0,M,-33.0,M,,*58
$GSSIS,19480,-1
$GPGGA,175636.00,4245.42903,N,07129.41262,W,1,08,1.30,50.2,M,-33.0,M,,*5B
$GSSIS,19609,-1
$GPGGA,175637.00,4245.42917,N,07129.41189,W,1,08,1.30,50.2,M,-33.0,M,,*59
$GSSIS,19734,-1
$GPGGA,175638.00,4245.42934,N,07129.41116,W,1,08,1.30,50.0,M,-33.0,M,,*53
$GSSIS,19858,-1
$GPGGA,175639.00,4245.42958,N,07129.41036,W,1,08,1.30,49.6,M,-33.0,M,,*55
$GSSIS,19981,-1
$GPGGA,175640.00,4245.42979,N,07129.40950,W,1,08,1.30,49.2,M,-33.0,M,,*54
$GSSIS,20103,-1
$GPGGA,175641.00,4245.43007,N,07129.40856,W,1,08,1.30,49.9,M,-33.0,M,,*58
$GSSIS,20223,-1
$GPGGA,175642.00,4245.43033,N,07129.40765,W,1,08,1.30,50.4,M,-33.0,M,,*56
$GSSIS,20338,-1
$GPGGA,175643.00,4245.43046,N,07129.40680,W,1,08,1.30,50.6,M,-33.0,M,,*5D
$GSSIS,20458,-1
$GPGGA,175644.00,4245.43064,N,07129.40595,W,1,08,1.30,50.5,M,-33.0,M,,*5E
$GSSIS,20588,-1
$GPGGA,175645.00,4245.43062,N,07129.40501,W,1,08,1.30,50.9,M,-33.0,M,,*58
$GSSIS,20720,-1
$GPGGA,175646.00,4245.43043,N,07129.40407,W,1,08,1.30,51.0,M,-33.0,M,,*57
$GSSIS,20855,-1
$GPGGA,175647.00,4245.43020,N,07129.40318,W,1,08,1.30,51.1,M,-33.0,M,,*5B
$GSSIS,20982,-1
$GPGGA,175648.00,4245.42975,N,07129.40237,W,1,08,1.30,51.0,M,-33.0,M,,*51
$GSSIS,21104,-1
$GPGGA,175649.00,4245.42931,N,07129.40170,W,1,08,1.30,50.8,M,-33.0,M,,*59
$GSSIS,21188,-1
$GPGGA,175650.00,4245.42896,N,07129.40110,W,1,08,1.30,51.0,M,-33.0,M,,*52
$GSSIS,21202,-1
$GPGGA,175651.00,4245.42876,N,07129.40097,W,1,08,1.30,51.0,M,-33.0,M,,*53
$GSSIS,20,-1
$GPGGA,175306.00,4245.43847,N,07129.42014,W,1,08,1.31,48.7,M,-33.0,M,,*50
$GSSIS,207,-1
$GPGGA,175308.00,4245.43844,N,07129.42016,W,1,08,1.31,48.5,M,-33.0,M,,*5D
$GSSIS,210,-1
$GPGGA,175310.00,4245.43893,N,07129.42013,W,1,08,1.79,48.2,M,-33.0,M,,*50
$GSSIS,285,-1
$GPGGA,175312.00,4245.43974,N,07129.41988,W,1,08,1.31,48.5,M,-33.0,M,,*59
$GSSIS,380,-1
$GPGGA,175313.00,4245.44017,N,07129.41978,W,1,08,1.31,48.0,M,-33.0,M,,*59
$GSSIS,475,-1
$GPGGA,175314.00,4245.44059,N,07129.41968,W,1,08,1.31,48.1,M,-33.0,M,,*54
$GSSIS,575,-1
$GPGGA,175315.00,4245.44112,N,07129.41964,W,1,08,1.31,48.2,M,-33.0,M,,*54
$GSSIS,678,-1
$GPGGA,175316.00,4245.44165,N,07129.41963,W,1,08,1.31,48.2,M,-33.0,M,,*50
$GSSIS,769,-1
$GPGGA,175317.00,4245.44213,N,07129.41960,W,1,08,1.31,48.1,M,-33.0,M,,*53
$GSSIS,865,-1
$GPGGA,175318.00,4245.44265,N,07129.41949,W,1,08,1.31,47.9,M,-33.0,M,,*51
$GSSIS,967,-1
$GPGGA,175319.00,4245.44316,N,07129.41935,W,1,08,1.31,47.9,M,-33.0,M,,*5E
$GSSIS,1060,-1
$GPGGA,175320.00,4245.44373,N,07129.41929,W,1,08,1.31,47.8,M,-33.0,M,,*5B
$GSSIS,1122,-1
$GPGGA,175321.00,4245.44429,N,07129.41930,W,1,08,1.31,48.0,M,-33.0,M,,*5D
$GSSIS,1126,-1
$GPGGA,175322.00,4245.44439,N,07129.41930,W,1,07,1.68,47.8,M,-33.0,M,,*5B
$GSSIS,1176,-1
$GPGGA,175323.00,4245.44449,N,07129.41925,W,1,08,1.31,47.6,M,-33.0,M,,*54
$GSSIS,1421,-1
$GPGGA,175324.00,4245.44483,N,07129.41921,W,1,08,1.31,47.5,M,-33.0,M,,*52
$GSSIS,1424,-1
$GPGGA,175325.00,4245.44531,N,07129.41918,W,1,08,1.31,47.7,M,-33.0,M,,*53
$GSSIS,1677,-1
$GPGGA,175326.00,4245.44573,N,07129.41915,W,1,08,1.31,47.5,M,-33.0,M,,*59
$GSSIS,1682,-1
$GPGGA,175327.00,4245.44624,N,07129.41910,W,1,08,1.31,48.0,M,-33.0,M,,*56
$GSSIS,1734,-1
$GPGGA,175329.00,4245.44724,N,07129.41916,W,1,08,1.31,47.6,M,-33.0,M,,*56
$GSSIS,1835,-1
$GPGGA,175330.00,4245.44776,N,07129.41907,W,1,08,1.31,47.7,M,-33.0,M,,*58
$GSSIS,2177,-1
$GPGGA,175331.00,4245.44822,N,07129.41894,W,1,08,1.31,47.5,M,-33.0,M,,*5E
$GSSIS,2231,-1
$GPGGA,175333.00,4245.44926,N,07129.41877,W,1,08,1.31,47.6,M,-33.0,M,,*57
$GSSIS,2370,-1
$GPGGA,175341.00,4245.44998,N,07129.41862,W,1,08,1.31,48.4,M,-33.0,M,,*5E
$GSSIS,2372,-1
$GPGGA,175342.00,4245.45009,N,07129.41865,W,1,08,1.31,48.4,M,-33.0,M,,*5A
$GSSIS,2423,-1
$GPGGA,175344.00,4245.45085,N,07129.41864,W,1,08,1.30,48.5,M,-33.0,M,,*59
$GSSIS,2520,-1
$GPGGA,175345.00,4245.45128,N,07129.41861,W,1,08,1.30,48.4,M,-33.0,M,,*5A
$GSSIS,2657,-1
$GPGGA,175346.00,4245.45180,N,07129.41856,W,1,08,1.30,48.4,M,-33.0,M,,*5F
$GSSIS,2659,-1
$GPGGA,175348.00,4245.45225,N,07129.41831,W,1,08,1.30,48.6,M,-33.0,M,,*5E
$GSSIS,2774,-1
$GPGGA,175401.00,4245.45114,N,07129.41836,W,1,08,1.30,49.0,M,-33.0,M,,*55
$GSSIS,2775,-1
$GPGGA,175402.00,4245.45163,N,07129.41836,W,1,08,1.30,48.9,M,-33.0,M,,*5E
$GSSIS,3031,-1
$GPGGA,175403.00,4245.45211,N,07129.41830,W,1,08,1.30,48.9,M,-33.0,M,,*5F
$GSSIS,3032,-1
$GPGGA,175404.00,4245.45264,N,07129.41822,W,1,08,1.30,48.9,M,-33.0,M,,*59
$GSSIS,3035,-1
$GPGGA,175405.00,4245.45315,N,07129.41821,W,1,08,1.30,48.8,M,-33.0,M,,*5D
$GSSIS,3118,-1
$GPGGA,175407.00,4245.45413,N,07129.41809,W,1,08,1.30,48.8,M,-33.0,M,,*54
$GSSIS,3219,-1
$GPGGA,175408.00,4245.45471,N,07129.41805,W,1,08,1.30,49.0,M,-33.0,M,,*5A
$GSSIS,3316,-1
$GPGGA,175409.00,4245.45525,N,07129.41804,W,1,08,1.30,48.8,M,-33.0,M,,*53
$GSSIS,3420,-1
$GPGGA,175410.00,4245.45576,N,07129.41809,W,1,08,1.30,48.7,M,-33.0,M,,*5F
$GSSIS,3519,-1
$GPGGA,175411.00,4245.45617,N,07129.41798,W,1,08,1.30,48.6,M,-33.0,M,,*5C
$GSSIS,3623,-1
$GPGGA,175412.00,4245.45667,N,07129.41789,W,1,08,1.30,48.8,M,-33.0,M,,*56
$GSSIS,3718,-1
$GPGGA,175413.00,4245.45730,N,07129.41791,W,1,08,1.30,48.9,M,-33.0,M,,*5C
$GSSIS,3819,-1
$GPGGA,175414.00,4245.45784,N,07129.41790,W,1,08,1.30,49.0,M,-33.0,M,,*5D
$GSSIS,3920,-1
$GPGGA,175415.00,4245.45829,N,07129.41787,W,1,08,1.30,48.7,M,-33.0,M,,*54
$GSSIS,4021,-1
$GPGGA,175416.00,4245.45878,N,07129.41784,W,1,08,1.30,48.5,M,-33.0,M,,*52
$GSSIS,4125,-1
$GPGGA,175417.00,4245.45910,N,07129.41769,W,1,08,1.30,48.2,M,-33.0,M,,*58
$GSSIS,4221,-1
$GPGGA,175418.00,4245.45961,N,07129.41771,W,1,08,1.30,48.1,M,-33.0,M,,*5B
$GSSIS,4530,-1
$GPGGA,175419.00,4245.46026,N,07129.41790,W,1,08,1.30,48.2,M,-33.0,M,,*5F
$GSSIS,4533,-1
$GPGGA,175420.00,4245.46082,N,07129.41801,W,1,08,1.30,48.1,M,-33.0,M,,*5F
$GSSIS,4809,-1
$GPGGA,175421.00,4245.46141,N,07129.41820,W,1,08,1.30,48.1,M,-33.0,M,,*53
$GSSIS,4810,-1
$GPGGA,175422.00,4245.46197,N,07129.41837,W,1,08,1.30,48.1,M,-33.0,M,,*5D
$GSSIS,4860,-1
$GPGGA,175424.00,4245.46317,N,07129.41829,W,1,08,1.30,48.0,M,-33.0,M,,*5F
$GSSIS,4958,-1
$GPGGA,175425.00,4245.46368,N,07129.41829,W,1,08,1.30,47.9,M,-33.0,M,,*50
$GSSIS,5320,-1
$GPGGA,175426.00,4245.46422,N,07129.41842,W,1,08,1.30,47.8,M,-33.0,M,,*56
$GSSIS,5321,-1
$GPGGA,175427.00,4245.46468,N,07129.41850,W,1,08,1.30,47.7,M,-33.0,M,,*55
$GSSIS,5618,-1
$GPGGA,175428.00,4245.46519,N,07129.41867,W,1,08,1.30,47.6,M,-33.0,M,,*58
$GSSIS,5622,-1
$GPGGA,175430.00,4245.46611,N,07129.41911,W,1,08,1.30,47.3,M,-33.0,M,,*5F
$GSSIS,5712,-1
$GPGGA,175432.00,4245.46723,N,07129.41987,W,1,08,1.30,47.4,M,-33.0,M,,*55
$GSSIS,5825,-1
$GPGGA,175433.00,4245.46762,N,07129.42035,W,1,08,1.30,47.4,M,-33.0,M,,*52
$GSSIS,6148,-1
$GPGGA,175434.00,4245.46806,N,07129.42101,W,1,08,1.30,47.6,M,-33.0,M,,*5C
$GSSIS,6438,-1
$GPGGA,175436.00,4245.46858,N,07129.42227,W,1,08,1.30,47.7,M,-33.0,M,,*53
$GSSIS,6439,-1
$GPGGA,175437.00,4245.46882,N,07129.42303,W,1,08,1.30,48.0,M,-33.0,M,,*5A
$GSSIS,6501,-1
$GPGGA,175439.00,4245.46921,N,07129.42463,W,1,08,1.30,47.1,M,-33.0,M,,*53
$GSSIS,6610,-1
$GPGGA,175440.00,4245.46943,N,07129.42551,W,1,08,1.30,46.9,M,-33.0,M,,*50
$GSSIS,6998,-1
$GPGGA,175441.00,4245.46979,N,07129.42609,W,1,08,1.30,45.7,M,-33.0,M,,*5B
$GSSIS,7044,-1
$GPGGA,175442.00,4245.46996,N,07129.42688,W,1,08,1.30,45.6,M,-33.0,M,,*51
$GSSIS,7046,-1
$GPGGA,175447.00,4245.47030,N,07129.42895,W,1,08,1.30,45.9,M,-33.0,M,,*5D
$GSSIS,7108,-1
$GPGGA,175448.00,4245.47034,N,07129.42923,W,1,08,1.30,45.9,M,-33.0,M,,*5A
$GSSIS,7364,-1
$GPGGA,175449.00,4245.47035,N,07129.42982,W,1,08,1.30,46.0,M,-33.0,M,,*5B
$GSSIS,7575,-1
$GPGGA,175451.00,4245.47055,N,07129.43123,W,1,08,1.30,46.5,M,-33.0,M,,*53
$GSSIS,7576,-1
$GPGGA,175452.00,4245.47066,N,07129.43189,W,1,08,1.30,46.0,M,-33.0,M,,*55
$GSSIS,7581,-1
$GPGGA,175453.00,4245.47069,N,07129.43245,W,1,08,1.30,46.0,M,-33.0,M,,*58
$GSSIS,7619,-1
$GPGGA,175454.00,4245.47076,N,07129.43296,W,1,08,1.30,45.9,M,-33.0,M,,*55
$GSSIS,7698,-1
$GPGGA,175455.00,4245.47101,N,07129.43348,W,1,08,1.30,45.9,M,-33.0,M,,*57
$GSSIS,8020,-1
$GPGGA,175456.00,4245.47124,N,07129.43410,W,1,08,1.30,45.7,M,-33.0,M,,*57
$GSSIS,8023,-1
$GPGGA,175457.00,4245.47156,N,07129.43459,W,1,08,1.30,45.7,M,-33.0,M,,*5E
$GSSIS,8344,-1
$GPGGA,175458.00,4245.47188,N,07129.43499,W,1,08,1.30,45.8,M,-33.0,M,,*51
$GSSIS,8346,-1
$GPGGA,175459.00,4245.47196,N,07129.43543,W,1,08,1.30,45.6,M,-33.0,M,,*57
$GSSIS,8350,-1
$GPGGA,175500.00,4245.47174,N,07129.43601,W,1,08,1.30,45.8,M,-33.0,M,,*5D
$GSSIS,8452,-1
$GPGGA,175502.00,4245.47058,N,07129.43659,W,1,08,1.30,46.5,M,-33.0,M,,*53
$GSSIS,8563,-1
$GPGGA,175503.00,4245.46986,N,07129.43668,W,1,08,1.30,46.6,M,-33.0,M,,*58
$GSSIS,8685,-1
$GPGGA,175504.00,4245.46915,N,07129.43675,W,1,08,1.30,47.1,M,-33.0,M,,*5F
$GSSIS,8815,-1
$GPGGA,175505.00,4245.46858,N,07129.43661,W,1,08,1.30,46.8,M,-33.0,M,,*5B
$GSSIS,8930,-1
$GPGGA,175506.00,4245.46784,N,07129.43659,W,1,08,1.30,47.4,M,-33.0,M,,*50
$GSSIS,9051,-1
$GPGGA,175507.00,4245.46721,N,07129.43632,W,1,08,1.30,47.3,M,-33.0,M,,*54
$GSSIS,9173,-1
$GPGGA,175508.00,4245.46661,N,07129.43618,W,1,08,1.30,47.3,M,-33.0,M,,*56
$GSSIS,9295,-1
$GPGGA,175509.00,4245.46594,N,07129.43612,W,1,08,1.30,47.7,M,-33.0,M,,*50
$GSSIS,9416,-1
$GPGGA,175510.00,4245.46525,N,07129.43606,W,1,08,1.30,47.8,M,-33.0,M,,*58
$GSSIS,9542,-1
$GPGGA,175511.00,4245.46458,N,07129.43606,W,1,08,1.30,47.8,M,-33.0,M,,*52
$GSSIS,9669,-1
$GPGGA,175512.00,4245.46390,N,07129.43609,W,1,08,1.30,47.8,M,-33.0,M,,*5D
$GSSIS,9796,-1
$GPGGA,175513.00,4245.46321,N,07129.43610,W,1,08,1.30,47.8,M,-33.0,M,,*5E
$GSSIS,9923,-1
$GPGGA,175514.00,4245.46244,N,07129.43609,W,1,08,1.30,48.2,M,-33.0,M,,*56
$GSSIS,10093,-1
$GPGGA,175515.00,4245.46175,N,07129.43604,W,1,08,1.30,48.2,M,-33.0,M,,*5B
$GSSIS,10182,-1
$GPGGA,175516.00,4245.46107,N,07129.43595,W,1,08,1.30,48.4,M,-33.0,M,,*50
$GSSIS,10309,-1
$GPGGA,175517.00,4245.46045,N,07129.43571,W,1,08,1.30,48.3,M,-33.0,M,,*5B
$GSSIS,10437,-1
$GPGGA,175518.00,4245.45985,N,07129.43554,W,1,08,1.30,48.1,M,-33.0,M,,*57
$GSSIS,10559,-1
$GPGGA,175519.00,4245.45921,N,07129.43534,W,1,08,1.30,47.6,M,-33.0,M,,*56
$GSSIS,10683,-1
$GPGGA,175520.00,4245.45854,N,07129.43534,W,1,08,1.30,47.6,M,-33.0,M,,*5F
$GSSIS,10814,-1
$GPGGA,175521.00,4245.45782,N,07129.43543,W,1,08,1.30,47.9,M,-33.0,M,,*55
$GSSIS,10948,-1
$GPGGA,175522.00,4245.45710,N,07129.43546,W,1,08,1.30,48.0,M,-33.0,M,,*5E
$GSSIS,11073,-1
$GPGGA,175523.00,4245.45639,N,07129.43531,W,1,08,1.30,47.9,M,-33.0,M,,*53
$GSSIS,11203,-1
$GPGGA,175524.00,4245.45565,N,07129.43514,W,1,08,1.30,47.8,M,-33.0,M,,*58
$GSSIS,11330,-1
$GPGGA,175525.00,4245.45500,N,07129.43508,W,1,08,1.30,47.9,M,-33.0,M,,*56
$GSSIS,11456,-1
$GPGGA,175526.00,4245.45434,N,07129.43511,W,1,08,1.30,48.2,M,-33.0,M,,*5F
$GSSIS,11577,-1
$GPGGA,175527.00,4245.45365,N,07129.43508,W,1,08,1.30,48.2,M,-33.0,M,,*55
$GSSIS,11701,-1
$GPGGA,175528.00,4245.45299,N,07129.43502,W,1,08,1.30,47.9,M,-33.0,M,,*56
$GSSIS,11831,-1
$GPGGA,175529.00,4245.45229,N,07129.43506,W,1,08,1.30,48.2,M,-33.0,M,,*5C
$GSSIS,11962,-1
$GPGGA,175530.00,4245.45162,N,07129.43509,W,1,08,1.30,48.3,M,-33.0,M,,*56
$GSSIS,12081,-1
$GPGGA,175531.00,4245.45089,N,07129.43513,W,1,08,1.30,48.7,M,-33.0,M,,*5C
$GSSIS,12204,-1
$GPGGA,175532.00,4245.45017,N,07129.43497,W,1,08,1.30,48.6,M,-33.0,M,,*54
$GSSIS,12333,-1
$GPGGA,175533.00,4245.44944,N,07129.43492,W,1,08,1.30,48.8,M,-33.0,M,,*50
$GSSIS,12453,-1
$GPGGA,175534.00,4245.44883,N,07129.43487,W,1,08,1.30,48.8,M,-33.0,M,,*59
$GSSIS,12575,-1
$GPGGA,175535.00,4245.44820,N,07129.43483,W,1,08,1.30,48.9,M,-33.0,M,,*54
$GSSIS,12700,-1
$GPGGA,175536.00,4245.44753,N,07129.43476,W,1,08,1.30,48.8,M,-33.0,M,,*57
$GSSIS,12817,-1
$GPGGA,175537.00,4245.44688,N,07129.43476,W,1,08,1.30,49.0,M,-33.0,M,,*58
$GSSIS,12934,-1
$GPGGA,175538.00,4245.44621,N,07129.43474,W,1,08,1.30,49.2,M,-33.0,M,,*54
$GSSIS,13058,-1
$GPGGA,175539.00,4245.44551,N,07129.43470,W,1,08,1.30,49.1,M,-33.0,M,,*56
$GSSIS,13178,-1
$GPGGA,175540.00,4245.44481,N,07129.43463,W,1,08,1.30,49.0,M,-33.0,M,,*57
$GSSIS,13300,-1
$GPGGA,175541.00,4245.44418,N,07129.43455,W,1,08,1.30,48.8,M,-33.0,M,,*5A
$GSSIS,13418,-1
$GPGGA,175542.00,4245.44353,N,07129.43463,W,1,08,1.30,49.2,M,-33.0,M,,*5F
$GSSIS,13539,-1
$GPGGA,175543.00,4245.44291,N,07129.43461,W,1,08,1.30,49.1,M,-33.0,M,,*50
$GSSIS,13658,-1
$GPGGA,175544.00,4245.44226,N,07129.43469,W,1,08,1.30,49.1,M,-33.0,M,,*53
$GSSIS,13762,-1
$GPGGA,175545.00,4245.44162,N,07129.43488,W,1,08,1.30,49.5,M,-33.0,M,,*5A
$GSSIS,13797,-1
$GPGGA,175546.00,4245.44127,N,07129.43491,W,1,08,1.30,49.5,M,-33.0,M,,*50
$GSSIS,13801,-1
$GPGGA,175547.00,4245.44116,N,07129.43496,W,1,08,1.30,49.6,M,-33.0,M,,*57
$GSSIS,13869,-1
$GPGGA,175548.00,4245.44096,N,07129.43498,W,1,08,1.30,49.8,M,-33.0,M,,*51
$GSSIS,13977,-1
$GPGGA,175549.00,4245.44047,N,07129.43494,W,1,08,1.30,49.8,M,-33.0,M,,*50
$GSSIS,14095,-1
$GPGGA,175550.00,4245.43988,N,07129.43490,W,1,08,1.30,49.6,M,-33.0,M,,*5F
$GSSIS,14218,-1
$GPGGA,175551.00,4245.43931,N,07129.43489,W,1,08,1.30,49.7,M,-33.0,M,,*55
$GSSIS,14340,-1
$GPGGA,175552.00,4245.43870,N,07129.43486,W,1,08,1.30,49.6,M,-33.0,M,,*5C
$GSSIS,14465,-1
$GPGGA,175553.00,4245.43805,N,07129.43494,W,1,08,1.30,49.6,M,-33.0,M,,*5C
$GSSIS,14593,-1
$GPGGA,175554.00,4245.43741,N,07129.43494,W,1,08,1.30,49.1,M,-33.0,M,,*53
$GSSIS,14720,-1
$GPGGA,175555.00,4245.43677,N,07129.43496,W,1,08,1.30,49.0,M,-33.0,M,,*55
$GSSIS,14842,-1
$GPGGA,175556.00,4245.43611,N,07129.43483,W,1,08,1.30,49.1,M,-33.0,M,,*53
$GSSIS,14964,-1
$GPGGA,175557.00,4245.43546,N,07129.43476,W,1,08,1.30,49.2,M,-33.0,M,,*5A
$GSSIS,15086,-1
$GPGGA,175558.00,4245.43473,N,07129.43472,W,1,08,1.30,49.6,M,-33.0,M,,*52
$GSSIS,15216,-1
$GPGGA,175559.00,4245.43401,N,07129.43467,W,1,08,1.30,49.8,M,-33.0,M,,*5C
$GSSIS,15345,-1
$GPGGA,175600.00,4245.43336,N,07129.43465,W,1,08,1.30,49.4,M,-33.0,M,,*5E
$GSSIS,15468,-1
$GPGGA,175601.00,4245.43268,N,07129.43459,W,1,08,1.30,49.6,M,-33.0,M,,*58
$GSSIS,15597,-1
$GPGGA,175602.00,4245.43203,N,07129.43455,W,1,08,1.30,49.2,M,-33.0,M,,*5E
$GSSIS,15717,-1
$GPGGA,175603.00,4245.43130,N,07129.43450,W,1,08,1.30,49.9,M,-33.0,M,,*52
$GSSIS,15838,-1
$GPGGA,175604.00,4245.43060,N,07129.43432,W,1,08,1.30,50.3,M,-33.0,M,,*57
$GSSIS,15959,-1
$GPGGA,175605.00,4245.42994,N,07129.43412,W,1,08,1.30,50.2,M,-33.0,M,,*56
$GSSIS,16081,-1
$GPGGA,175606.00,4245.42927,N,07129.43392,W,1,08,1.30,50.0,M,-33.0,M,,*50
$GSSIS,16208,-1
$GPGGA,175607.00,4245.42873,N,07129.43375,W,1,08,1.30,49.6,M,-33.0,M,,*56
$GSSIS,16334,-1
$GPGGA,175608.00,4245.42817,N,07129.43349,W,1,08,1.30,49.5,M,-33.0,M,,*57
$GSSIS,16458,-1
$GPGGA,175609.00,4245.42765,N,07129.43309,W,1,08,1.30,49.6,M,-33.0,M,,*5B
$GSSIS,16587,-1
$GPGGA,175610.00,4245.42720,N,07129.43263,W,1,08,1.30,49.6,M,-33.0,M,,*5F
$GSSIS,16721,-1
$GPGGA,175611.00,4245.42669,N,07129.43194,W,1,08,1.30,49.7,M,-33.0,M,,*58
$GSSIS,16855,-1
$GPGGA,175612.00,4245.42626,N,07129.43122,W,1,08,1.30,49.7,M,-33.0,M,,*5D
$GSSIS,17019,-1
$GPGGA,175613.00,4245.42592,N,07129.43041,W,1,08,1.30,50.1,M,-33.0,M,,*5A
$GSSIS,17095,-1
$GPGGA,175614.00,4245.42580,N,07129.42969,W,1,08,1.30,50.2,M,-33.0,M,,*5F
$GSSIS,17204,-1
$GPGGA,175615.00,4245.42574,N,07129.42899,W,1,08,1.30,50.6,M,-33.0,M,,*5F
$GSSIS,17325,-1
$GPGGA,175616.00,4245.42581,N,07129.42809,W,1,08,1.30,50.6,M,-33.0,M,,*5F
$GSSIS,17443,-1
$GPGGA,175617.00,4245.42586,N,07129.42713,W,1,08,1.30,50.5,M,-33.0,M,,*5E
$GSSIS,17535,-1
$GPGGA,175618.00,4245.42597,N,07129.42639,W,1,08,1.30,50.6,M,-33.0,M,,*5B
$GSSIS,17544,-1
$GPGGA,175619.00,4245.42603,N,07129.42612,W,1,08,1.30,50.6,M,-33.0,M,,*5D
$GSSIS,17553,-1
$GPGGA,175620.00,4245.42615,N,07129.42623,W,1,08,1.30,50.9,M,-33.0,M,,*5D
$GSSIS,17636,-1
$GPGGA,175621.00,4245.42632,N,07129.42573,W,1,08,1.30,50.6,M,-33.0,M,,*50
$GSSIS,17748,-1
$GPGGA,175622.00,4245.42646,N,07129.42496,W,1,08,1.30,50.2,M,-33.0,M,,*5E
$GSSIS,17871,-1
$GPGGA,175623.00,4245.42655,N,07129.42411,W,1,08,1.30,49.9,M,-33.0,M,,*51
$GSSIS,17985,-1
$GPGGA,175624.00,4245.42664,N,07129.42330,W,1,08,1.30,49.7,M,-33.0,M,,*5E
$GSSIS,18104,-1
$GPGGA,175625.00,4245.42679,N,07129.42244,W,1,08,1.30,50.0,M,-33.0,M,,*5E
$GSSIS,18215,-1
$GPGGA,175626.00,4245.42698,N,07129.42163,W,1,08,1.30,50.0,M,-33.0,M,,*54
$GSSIS,18335,-1
$GPGGA,175627.00,4245.42717,N,07129.42080,W,1,08,1.30,50.1,M,-33.0,M,,*5E
$GSSIS,18459,-1
$GPGGA,175628.00,4245.42742,N,07129.42005,W,1,08,1.30,50.2,M,-33.0,M,,*5F
$GSSIS,18583,-1
$GPGGA,175629.00,4245.42762,N,07129.41918,W,1,08,1.30,49.9,M,-33.0,M,,*59
$GSSIS,18711,-1
$GPGGA,175630.00,4245.42788,N,07129.41827,W,1,08,1.30,49.8,M,-33.0,M,,*59
$GSSIS,18840,-1
$GPGGA,175631.00,4245.42813,N,07129.41741,W,1,08,1.30,49.8,M,-33.0,M,,*5A
$GSSIS,18968,-1
$GPGGA,175632.00,4245.42818,N,07129.41641,W,1,08,1.30,49.8,M,-33.0,M,,*53
$GSSIS,19140,-1
$GPGGA,175633.00,4245.42834,N,07129.41542,W,1,08,1.30,50.0,M,-33.0,M,,*5C
$GSSIS,19228,-1
$GPGGA,175634.00,4245.42852,N,07129.41444,W,1,08,1.30,50.1,M,-33.0,M,,*5D
$GSSIS,19352,-1
$GPGGA,175635.00,4245.42877,N,07129.41350,W,1,08,1.30,50.0,M,-33.0,M,,*58
$GSSIS,19480,-1
$GPGGA,175636.00,4245.42903,N,07129.41262,W,1,08,1.30,50.2,M,-33.0,M,,*5B
$GSSIS,19609,-1
$GPGGA,175637.00,4245.42917,N,07129.41189,W,1,08,1.30,50.2,M,-33.0,M,,*59
$GSSIS,19734,-1
$GPGGA,175638.00,4245.42934,N,07129.41116,W,1,08,1.30,50.0,M,-33.0,M,,*53
$GSSIS,19858,-1
$GPGGA,175639.00,4245.42958,N,07129.41036,W,1,08,1.30,49.6,M,-33.0,M,,*55
$GSSIS,19981,-1
$GPGGA,175640.00,4245.42979,N,07129.40950,W,1,08,1.30,49.2,M,-33.0,M,,*54
$GSSIS,20103,-1
$GPGGA,175641.00,4245.43007,N,07129.40856,W,1,08,1.30,49.9,M,-33.0,M,,*58
$GSSIS,20223,-1
$GPGGA,175642.00,4245.43033,N,07129.40765,W,1,08,1.30,50.4,M,-33.0,M,,*56
$GSSIS,20338,-1
$GPGGA,175643.00,4245.43046,N,07129.40680,W,1,08,1.30,50.6,M,-33.0,M,,*5D
$GSSIS,20458,-1
$GPGGA,175644.00,4245.43064,N,07129.40595,W,1,08,1.30,50.5,M,-33.0,M,,*5E
$GSSIS,20588,-1
$GPGGA,175645.00,4245.43062,N,07129.40501,W,1,08,1.30,50.9,M,-33.0,M,,*58
$GSSIS,20720,-1
$GPGGA,175646.00,4245.43043,N,07129.40407,W,1,08,1.30,51.0,M,-33.0,M,,*57
$GSSIS,20855,-1
$GPGGA,175647.00,4245.43020,N,07129.40318,W,1,08,1.30,51.1,M,-33.0,M,,*5B
$GSSIS,20982,-1
$GPGGA,175648.00,4245.42975,N,07129.40237,W,1,08,1.30,51.0,M,-33.0,M,,*51
$GSSIS,21104,-1
$GPGGA,175649.00,4245.42931,N,07129.40170,W,1,08,1.30,50.8,M,-33.0,M,,*59
$GSSIS,21188,-1
$GPGGA,175650.00,4245.42896,N,07129.40110,W,1,08,1.30,51.0,M,-33.0,M,,*52
$GSSIS,21202,-1
$GPGGA,175651.00,4245.42876,N,07129.40097,W,1,08,1.30,51.0,M,-33.0,M,,*53
$GSSIS,20,-1
$GPGGA,175306.00,4245.43847,N,07129.42014,W,1,08,1.31,48.7,M,-33.0,M,,*50
$GSSIS,207,-1
$GPGGA,175308.00,4245.43844,N,07129.42016,W,1,08,1.31,48.5,M,-33.0,M,,*5D
$GSSIS,210,-1
$GPGGA,175310.00,4245.43893,N,07129.42013,W,1,08,1.79,48.2,M,-33.0,M,,*50
$GSSIS,285,-1
$GPGGA,175312.00,4245.43974,N,07129.41988,W,1,08,1.31,48.5,M,-33.0,M,,*59
$GSSIS,380,-1
$GPGGA,175313.00,4245.44017,N,07129.41978,W,1,08,1.31,48.0,M,-33.0,M,,*59
$GSSIS,475,-1
$GPGGA,175314.00,4245.44059,N,07129.41968,W,1,08,1.31,48.1,M,-33.0,M,,*54
$GSSIS,575,-1
$GPGGA,175315.00,4245.44112,N,07129.41964,W,1,08,1.31,48.2,M,-33.0,M,,*54
$GSSIS,678,-1
$GPGGA,175316.00,4245.44165,N,07129.41963,W,1,08,1.31,48.2,M,-33.0,M,,*50
$GSSIS,769,-1
$GPGGA,175317.00,4245.44213,N,07129.41960,W,1,08,1.31,48.1,M,-33.0,M,,*53
$GSSIS,865,-1
$GPGGA,175318.00,4245.44265,N,07129.41949,W,1,08,1.31,47.9,M,-33.0,M,,*51
$GSSIS,967,-1
$GPGGA,175319.00,4245.44316,N,07129.41935,W,1,08,1.31,47.9,M,-33.0,M,,*5E
$GSSIS,1060,-1
$GPGGA,175320.00,4245.44373,N,07129.41929,W,1,08,1.31,47.8,M,-33.0,M,,*5B
$GSSIS,1122,-1
$GPGGA,175321.00,4245.44429,N,07129.41930,W,1,08,1.31,48.0,M,-33.0,M,,*5D
$GSSIS,1126,-1
$GPGGA,175322.00,4245.44439,N,07129.41930,W,1,07,1.68,47.8,M,-33.0,M,,*5B
$GSSIS,1176,-1
$GPGGA,175323.00,4245.44449,N,07129.41925,W,1,08,1.31,47.6,M,-33.0,M,,*54
$GSSIS,1421,-1
$GPGGA,175324.00,4245.44483,N,07129.41921,W,1,08,1.31,47.5,M,-33.0,M,,*52
$GSSIS,1424,-1
$GPGGA,175325.00,4245.44531,N,07129.41918,W,1,08,1.31,47.7,M,-33.0,M,,*53
$GSSIS,1677,-1
$GPGGA,175326.00,4245.44573,N,07129.41915,W,1,08,1.31,47.5,M,-33.0,M,,*59
$GSSIS,1682,-1
$GPGGA,175327.00,4245.44624,N,07129.41910,W,1,08,1.31,48.0,M,-33.0,M,,*56
$GSSIS,1734,-1
$GPGGA,175329.00,4245.44724,N,07129.41916,W,1,08,1.31,47.6,M,-33.0,M,,*56
$GSSIS,1835,-1
$GPGGA,175330.00,4245.44776,N,07129.41907,W,1,08,1.31,47.7,M,-33.0,M,,*58
$GSSIS,2177,-1
$GPGGA,175331.00,4245.44822,N,07129.41894,W,1,08,1.31,47.5,M,-33.0,M,,*5E
$GSSIS,2231,-1
$GPGGA,175333.00,4245.44926,N,07129.41877,W,1,08,1.31,47.6,M,-33.0,M,,*57
$GSSIS,2370,-1
$GPGGA,175341.00,4245.44998,N,07129.41862,W,1,08,1.31,48.4,M,-33.0,M,,*5E
$GSSIS,2372,-1
$GPGGA,175342.00,4245.45009,N,07129.41865,W,1,08,1.31,48.4,M,-33.0,M,,*5A
$GSSIS,2423,-1
$GPGGA,175344.00,4245.45085,N,07129.41864,W,1,08,1.30,48.5,M,-33.0,M,,*59
$GSSIS,2520,-1
$GPGGA,175345.00,4245.45128,N,07129.41861,W,1,08,1.30,48.4,M,-33.0,M,,*5A
$GSSIS,2657,-1
$GPGGA,175346.00,4245.45180,N,07129.41856,W,1,08,1.30,48.4,M,-33.0,M,,*5F
$GSSIS,2659,-1
$GPGGA,175348.00,4245.45225,N,07129.41831,W,1,08,1.30,48.6,M,-33.0,M,,*5E
$GSSIS,2774,-1
$GPGGA,175401.00,4245.45114,N,07129.41836,W,1,08,1.30,49.0,M,-33.0,M,,*55
$GSSIS,2775,-1
$GPGGA,175402.00,4245.45163,N,07129.41836,W,1,08,1.30,48.9,M,-33.0,M,,*5E
$GSSIS,3031,-1
$GPGGA,175403.00,4245.45211,N,07129.41830,W,1,08,1.30,48.9,M,-33.0,M,,*5F
$GSSIS,3032,-1
$GPGGA,175404.00,4245.45264,N,07129.41822,W,1,08,1.30,48.9,M,-33.0,M,,*59
$GSSIS,3035,-1
$GPGGA,175405.00,4245.45315,N,07129.41821,W,1,08,1.30,48.8,M,-33.0,M,,*5D
$GSSIS,3118,-1
$GPGGA,175407.00,4245.45413,N,07129.41809,W,1,08,1.30,48.8,M,-33.0,M,,*54
$GSSIS,3219,-1
$GPGGA,175408.00,4245.45471,N,07129.41805,W,1,08,1.30,49.0,M,-33.0,M,,*5A
$GSSIS,3316,-1
$GPGGA,175409.00,4245.45525,N,07129.41804,W,1,08,1.30,48.8,M,-33.0,M,,*53
$GSSIS,3420,-1
$GPGGA,175410.00,4245.45576,N,07129.41809,W,1,08,1.30,48.7,M,-33.0,M,,*5F
$GSSIS,3519,-1
$GPGGA,175411.00,4245.45617,N,07129.41798,W,1,08,1.30,48.6,M,-33.0,M,,*5C
$GSSIS,3623,-1
$GPGGA,175412.00,4245.45667,N,07129.41789,W,1,08,1.30,48.8,M,-33.0,M,,*56
$GSSIS,3718,-1
$GPGGA,175413.00,4245.45730,N,07129.41791,W,1,08,1.30,48.9,M,-33.0,M,,*5C
$GSSIS,3819,-1
$GPGGA,175414.00,4245.45784,N,07129.41790,W,1,08,1.30,49.0,M,-33.0,M,,*5D
$GSSIS,3920,-1
$GPGGA,175415.00,4245.45829,N,07129.41787,W,1,08,1.30,48.7,M,-33.0,M,,*54
$GSSIS,4021,-1
$GPGGA,175416.00,4245.45878,N,07129.41784,W,1,08,1.30,48.5,M,-33.0,M,,*52
$GSSIS,4125,-1
$GPGGA,175417.00,4245.45910,N,07129.41769,W,1,08,1.30,48.2,M,-33.0,M,,*58
$GSSIS,4221,-1
$GPGGA,175418.00,4245.45961,N,07129.41771,W,1,08,1.30,48.1,M,-33.0,M,,*5B
$GSSIS,4530,-1
$GPGGA,175419.00,4245.46026,N,07129.41790,W,1,08,1.30,48.2,M,-33.0,M,,*5F
$GSSIS,4533,-1
$GPGGA,175420.00,4245.46082,N,07129.41801,W,1,08,1.30,48.1,M,-33.0,M,,*5F
$GSSIS,4809,-1
$GPGGA,175421.00,4245.46141,N,07129.41820,W,1,08,1.30,48.1,M,-33.0,M,,*53
$GSSIS,4810,-1
$GPGGA,175422.00,4245.46197,N,07129.41837,W,1,08,1.30,48.1,M,-33.0,M,,*5D
$GSSIS,4860,-1
$GPGGA,175424.00,4245.46317,N,07129.41829,W,1,08,1.30,48.0,M,-33.0,M,,*5F
$GSSIS,4958,-1
$GPGGA,175425.00,4245.46368,N,07129.41829,W,1,08,1.30,47.9,M,-33.0,M,,*50
$GSSIS,5320,-1
$GPGGA,175426.00,4245.46422,N,07129.41842,W,1,08,1.30,47.8,M,-33.0,M,,*56
$GSSIS,5321,-1
$GPGGA,175427.00,4245.46468,N,07129.41850,W,1,08,1.30,47.7,M,-33.0,M,,*55
$GSSIS,5618,-1
$GPGGA,175428.00,4245.46519,N,07129.41867,W,1,08,1.30,47.6,M,-33.0,M,,*58
$GSSIS,5622,-1
$GPGGA,175430.00,4245.46611,N,07129.41911,W,1,08,1.30,47.3,M,-33.0,M,,*5F
$GSSIS,5712,-1
$GPGGA,175432.00,4245.46723,N,07129.41987,W,1,08,1.30,47.4,M,-33.0,M,,*55
$GSSIS,5825,-1
$GPGGA,175433.00,4245.46762,N,07129.42035,W,1,08,1.30,47.4,M,-33.0,M,,*52
$GSSIS,6148,-1
$GPGGA,175434.00,4245.46806,N,07129.42101,W,1,08,1.30,47.6,M,-33.0,M,,*5C
$GSSIS,6438,-1
$GPGGA,175436.00,4245.46858,N,07129.42227,W,1,08,1.30,47.7,M,-33.0,M,,*53
$GSSIS,6439,-1
$GPGGA,175437.00,4245.46882,N,07129.42303,W,1,08,1.30,48.0,M,-33.0,M,,*5A
$GSSIS,6501,-1
$GPGGA,175439.00,4245.46921,N,07129.42463,W,1,08,1.30,47.1,M,-33.0,M,,*53
$GSSIS,6610,-1
$GPGGA,175440.00,4245.46943,N,07129.42551,W,1,08,1.30,46.9,M,-33.0,M,,*50
$GSSIS,6998,-1
$GPGGA,175441.00,4245.46979,N,07129.42609,W,1,08,1.30,45.7,M,-33.0,M,,*5B
$GSSIS,7044,-1
$GPGGA,175442.00,4245.46996,N,07129.42688,W,1,08,1.30,45.6,M,-33.0,M,,*51
$GSSIS,7046,-1
$GPGGA,175447.00,4245.47030,N,07129.42895,W,1,08,1.30,45.9,M,-33.0,M,,*5D
$GSSIS,7108,-1
$GPGGA,175448.00,4245.47034,N,07129.42923,W,1,08,1.30,45.9,M,-33.0,M,,*5A
$GSSIS,7364,-1
$GPGGA,175449.00,4245.47035,N,07129.42982,W,1,08,1.30,46.0,M,-33.0,M,,*5B
$GSSIS,7575,-1
$GPGGA,175451.00,4245.47055,N,07129.43123,W,1,08,1.30,46.5,M,-33.0,M,,*53
$GSSIS,7576,-1
$GPGGA,175452.00,4245.47066,N,07129.43189,W,1,08,1.30,46.0,M,-33.0,M,,*55
$GSSIS,7581,-1
$GPGGA,175453.00,4245.47069,N,07129.43245,W,1,08,1.30,46.0,M,-33.0,M,,*58
$GSSIS,7619,-1
$GPGGA,175454.00,4245.47076,N,07129.43296,W,1,08,1.30,45.9,M,-33.0,M,,*55
$GSSIS,7698,-1
$GPGGA,175455.00,4245.47101,N,07129.43348,W,1,08,1.30,45.9,M,-33.0,M,,*57
$GSSIS,8020,-1
$GPGGA,175456.00,4245.47124,N,07129.43410,W,1,08,1.30,45.7,M,-33.0,M,,*57
$GSSIS,8023,-1
$GPGGA,175457.00,4245.47156,N,07129.43459,W,1,08,1.30,45.7,M,-33.0,M,,*5E
$GSSIS,8344,-1
$GPGGA,175458.00,4245.47188,N,07129.43499,W,1,08,1.30,45.8,M,-33.0,M,,*51
$GSSIS,8346,-1
$GPGGA,175459.00,4245.47196,N,07129.43543,W,1,08,1.30,45.6,M,-33.0,M,,*57
$GSSIS,8350,-1
$GPGGA,175500.00,4245.47174,N,07129.43601,W,1,08,1.30,45.8,M,-33.0,M,,*5D
$GSSIS,8452,-1
$GPGGA,175502.00,4245.47058,N,07129.43659,W,1,08,1.30,46.5,M,-33.0,M,,*53
$GSSIS,8563,-1
$GPGGA,175503.00,4245.46986,N,07129.43668,W,1,08,1.30,46.6,M,-33.0,M,,*58
$GSSIS,8685,-1
$GPGGA,175504.00,4245.46915,N,07129.43675,W,1,08,1.30,47.1,M,-33.0,M,,*5F
$GSSIS,8815,-1
$GPGGA,175505.00,4245.46858,N,07129.43661,W,1,08,1.30,46.8,M,-33.0,M,,*5B
$GSSIS,8930,-1
$GPGGA,175506.00,4245.46784,N,07129.43659,W,1,08,1.30,47.4,M,-33.0,M,,*50
$GSSIS,9051,-1
$GPGGA,175507.00,4245.46721,N,07129.43632,W,1,08,1.30,47.3,M,-33.0,M,,*54
$GSSIS,9173,-1
$GPGGA,175508.00,4245.46661,N,07129.43618,W,1,08,1.30,47.3,M,-33.0,M,,*56
$GSSIS,9295,-1
$GPGGA,175509.00,4245.46594,N,07129.43612,W,1,08,1.30,47.7,M,-33.0,M,,*50
$GSSIS,9416,-1
$GPGGA,175510.00,4245.46525,N,07129.43606,W,1,08,1.30,47.8,M,-33.0,M,,*58
$GSSIS,9542,-1
$GPGGA,175511.00,4245.46458,N,07129.43606,W,1,08,1.30,47.8,M,-33.0,M,,*52
$GSSIS,9669,-1
$GPGGA,175512.00,4245.46390,N,07129.43609,W,1,08,1.30,47.8,M,-33.0,M,,*5D
$GSSIS,9796,-1
$GPGGA,175513.00,4245.46321,N,07129.43610,W,1,08,1.30,47.8,M,-33.0,M,,*5E
$GSSIS,9923,-1
$GPGGA,175514.00,4245.46244,N,07129.43609,W,1,08,1.30,48.2,M,-33.0,M,,*56
$GSSIS,10093,-1
$GPGGA,175515.00,4245.46175,N,07129.43604,W,1,08,1.30,48.2,M,-33.0,M,,*5B
$GSSIS,10182,-1
$GPGGA,175516.00,4245.46107,N,07129.43595,W,1,08,1.30,48.4,M,-33.0,M,,*50
$GSSIS,10309,-1
$GPGGA,175517.00,4245.46045,N,07129.43571,W,1,08,1.30,48.3,M,-33.0,M,,*5B
$GSSIS,10437,-1
$GPGGA,175518.00,4245.45985,N,07129.43554,W,1,08,1.30,48.1,M,-33.0,M,,*57
$GSSIS,10559,-1
$GPGGA,175519.00,4245.45921,N,07129.43534,W,1,08,1.30,47.6,M,-33.0,M,,*56
$GSSIS,10683,-1
$GPGGA,175520.00,4245.45854,N,07129.43534,W,1,08,1.30,47.6,M,-33.0,M,,*5F
$GSSIS,10814,-1
$GPGGA,175521.00,4245.45782,N,07129.43543,W,1,08,1.30,47.9,M,-33.0,M,,*55
$GSSIS,10948,-1
$GPGGA,175522.00,4245.45710,N,07129.43546,W,1,08,1.30,48.0,M,-33.0,M,,*5E
$GSSIS,11073,-1
$GPGGA,175523.00,4245.45639,N,07129.43531,W,1,08,1.30,47.9,M,-33.0,M,,*53
$GSSIS,11203,-1
$GPGGA,175524.00,4245.45565,N,07129.43514,W,1,08,1.30,47.8,M,-33.0,M,,*58
$GSSIS,11330,-1
$GPGGA,175525.00,4245.45500,N,07129.43508,W,1,08,1.30,47.9,M,-33.0,M,,*56
$GSSIS,11456,-1
$GPGGA,175526.00,4245.45434,N,07129.43511,W,1,08,1.30,48.2,M,-33.0,M,,*5F
$GSSIS,11577,-1
$GPGGA,175527.00,4245.45365,N,07129.43508,W,1,08,1.30,48.2,M,-33.0,M,,*55
$GSSIS,11701,-1
$GPGGA,175528.00,4245.45299,N,07129.43502,W,1,08,1.30,47.9,M,-33.0,M,,*56
$GSSIS,11831,-1
$GPGGA,175529.00,4245.45229,N,07129.43506,W,1,08,1.30,48.2,M,-33.0,M,,*5C
$GSSIS,11962,-1
$GPGGA,175530.00,4245.45162,N,07129.43509,W,1,08,1.30,48.3,M,-33.0,M,,*56
$GSSIS,12081,-1
$GPGGA,175531.00,4245.45089,N,07129.43513,W,1,08,1.30,48.7,M,-33.0,M,,*5C
$GSSIS,12204,-1
$GPGGA,175532.00,4245.45017,N,07129.43497,W,1,08,1.30,48.6,M,-33.0,M,,*54
$GSSIS,12333,-1
$GPGGA,175533.00,4245.44944,N,07129.43492,W,1,08,1.30,48.8,M,-33.0,M,,*50
$GSSIS,12453,-1
$GPGGA,175534.00,4245.44883,N,07129.43487,W,1,08,1.30,48.8,M,-33.0,M,,*59
$GSSIS,12575,-1
$GPGGA,175535.00,4245.44820,N,07129.43483,W,1,08,1.30,48.9,M,-33.0,M,,*54
$GSSIS,12700,-1
$GPGGA,175536.00,4245.44753,N,07129.43476,W,1,08,1.30,48.8,M,-33.0,M,,*57
$GSSIS,12817,-1
$GPGGA,175537.00,4245.44688,N,07129.43476,W,1,08,1.30,49.0,M,-33.0,M,,*58
$GSSIS,12934,-1
$GPGGA,175538.00,4245.44621,N,07129.43474,W,1,08,1.30,49.2,M,-33.0,M,,*54
$GSSIS,13058,-1
$GPGGA,175539.00,4245.44551,N,07129.43470,W,1,08,1.30,49.1,M,-33.0,M,,*56
$GSSIS,13178,-1
$GPGGA,175540.00,4245.44481,N,07129.43463,W,1,08,1.30,49.0,M,-33.0,M,,*57
$GSSIS,13300,-1
$GPGGA,175541.00,4245.44418,N,07129.43455,W,1,08,1.30,48.8,M,-33.0,M,,*5A
$GSSIS,13418,-1
$GPGGA,175542.00,4245.44353,N,07129.43463,W,1,08,1.30,49.2,M,-33.0,M,,*5F
$GSSIS,13539,-1
$GPGGA,175543.00,4245.44291,N,07129.43461,W,1,08,1.30,49.1,M,-33.0,M,,*50
$GSSIS,13658,-1
$GPGGA,175544.00,4245.44226,N,07129.43469,W,1,08,1.30,49.1,M,-33.0,M,,*53
$GSSIS,13762,-1
$GPGGA,175545.00,4245.44162,N,07129.43488,W,1,08,1.30,49.5,M,-33.0,M,,*5A
$GSSIS,13797,-1
$GPGGA,175546.00,4245.44127,N,07129.43491,W,1,08,1.30,49.5,M,-33.0,M,,*50
$GSSIS,13801,-1
$GPGGA,175547.00,4245.44116,N,07129.43496,W,1,08,1.30,49.6,M,-33.0,M,,*57
$GSSIS,13869,-1
$GPGGA,175548.00,4245.44096,N,07129.43498,W,1,08,1.30,49.8,M,-33.0,M,,*51
$GSSIS,13977,-1
$GPGGA,175549.00,4245.44047,N,07129.43494,W,1,08,1.30,49.8,M,-33.0,M,,*50
$GSSIS,14095,-1
$GPGGA,175550.00,4245.43988,N,07129.43490,W,1,08,1.30,49.6,M,-33.0,M,,*5F
$GSSIS,14218,-1
$GPGGA,175551.00,4245.43931,N,07129.43489,W,1,08,1.30,49.7,M,-33.0,M,,*55
$GSSIS,14340,-1
$GPGGA,175552.00,4245.43870,N,07129.43486,W,1,08,1.30,49.6,M,-33.0,M,,*5C
$GSSIS,14465,-1
$GPGGA,175553.00,4245.43805,N,07129.43494,W,1,08,1.30,49.6,M,-33.0,M,,*5C
$GSSIS,14593,-1
$GPGGA,175554.00,4245.43741,N,07129.43494,W,1,08,1.30,49.1,M,-33.0,M,,*53
$GSSIS,14720,-1
$GPGGA,175555.00,4245.43677,N,07129.43496,W,1,08,1.30,49.0,M,-33.0,M,,*55
$GSSIS,14842,-1
$GPGGA,175556.00,4245.43611,N,07129.43483,W,1,08,1.30,49.1,M,-33.0,M,,*53
$GSSIS,14964,-1
$GPGGA,175557.00,4245.43546,N,07129.43476,W,1,08,1.30,49.2,M,-33.0,M,,*5A
$GSSIS,15086,-1
$GPGGA,175558.00,4245.43473,N,07129.43472,W,1,08,1.30,49.6,M,-33.0,M,,*52
$GSSIS,15216,-1
$GPGGA,175559.00,4245.43401,N,07129.43467,W,1,08,1.30,49.8,M,-33.0,M,,*5C
$GSSIS,15345,-1
$GPGGA,175600.00,4245.43336,N,07129.43465,W,1,08,1.30,49.4,M,-33.0,M,,*5E
$GSSIS,15468,-1
$GPGGA,175601.00,4245.43268,N,07129.43459,W,1,08,1.30,49.6,M,-33.0,M,,*58
$GSSIS,15597,-1
$GPGGA,175602.00,4245.43203,N,07129.43455,W,1,08,1.30,49.2,M,-33.0,M,,*5E
$GSSIS,15717,-1
$GPGGA,175603.00,4245.43130,N,07129.43450,W,1,08,1.30,49.9,M,-33.0,M,,*52
$GSSIS,15838,-1
$GPGGA,175604.00,4245.43060,N,07129.43432,W,1,08,1.30,50.3,M,-33.0,M,,*57
$GSSIS,15959,-1
$GPGGA,175605.00,4245.42994,N,07129.43412,W,1,08,1.30,50.2,M,-33.0,M,,*56
$GSSIS,16081,-1
$GPGGA,175606.00,4245.42927,N,07129.43392,W,1,08,1.30,50.0,M,-33.0,M,,*50
$GSSIS,16208,-1
$GPGGA,175607.00,4245.42873,N,07129.43375,W,1,08,1.30,49.6,M,-33.0,M,,*56
$GSSIS,16334,-1
$GPGGA,175608.00,4245.42817,N,07129.43349,W,1,08,1.30,49.5,M,-33.0,M,,*57
$GSSIS,16458,-1
$GPGGA,175609.00,4245.42765,N,07129.43309,W,1,08,1.30,49.6,M,-33.0,M,,*5B
$GSSIS,16587,-1
$GPGGA,175610.00,4245.42720,N,07129.43263,W,1,08,1.30,49.6,M,-33.0,M,,*5F
$GSSIS,16721,-1
$GPGGA,175611.00,4245.42669,N,07129.43194,W,1,08,1.30,49.7,M,-33.0,M,,*58
$GSSIS,16855,-1
$GPGGA,175612.00,4245.42626,N,07129.43122,W,1,08,1.30,49.7,M,-33.0,M,,*5D
$GSSIS,17019,-1
$GPGGA,175613.00,4245.42592,N,07129.43041,W,1,08,1.30,50.1,M,-33.0,M,,*5A
$GSSIS,17095,-1
$GPGGA,175614.00,4245.42580,N,07129.42969,W,1,08,1.30,50.2,M,-33.0,M,,*5F
$GSSIS,17204,-1
$GPGGA,175615.00,4245.42574,N,07129.42899,W,1,08,1.30,50.6,M,-33.0,M,,*5F
$GSSIS,17325,-1
$GPGGA,175616.00,4245.42581,N,07129.42809,W,1,08,1.30,50.6,M,-33.0,M,,*5F
$GSSIS,17443,-1
$GPGGA,175617.00,4245.42586,N,07129.42713,W,1,08,1.30,50.5,M,-33.0,M,,*5E
$GSSIS,17535,-1
$GPGGA,175618.00,4245.42597,N,07129.42639,W,1,08,1.30,50.6,M,-33.0,M,,*5B
$GSSIS,17544,-1
$GPGGA,175619.00,4245.42603,N,07129.42612,W,1,08,1.30,50.6,M,-33.0,M,,*5D
$GSSIS,17553,-1
$GPGGA,175620.00,4245.42615,N,07129.42623,W,1,08,1.30,50.9,M,-33.0,M,,*5D
$GSSIS,17636,-1
$GPGGA,175621.00,4245.42632,N,07129.42573,W,1,08,1.30,50.6,M,-33.0,M,,*50
$GSSIS,17748,-1
$GPGGA,175622.00,4245.42646,N,07129.42496,W,1,08,1.30,50.2,M,-33.0,M,,*5E
$GSSIS,17871,-1
$GPGGA,175623.00,4245.42655,N,07129.42411,W,1,08,1.30,49.9,M,-33.0,M,,*51
$GSSIS,17985,-1
$GPGGA,175624.00,4245.42664,N,07129.42330,W,1,08,1.30,49.7,M,-33.0,M,,*5E
$GSSIS,18104,-1
$GPGGA,175625.00,4245.42679,N,07129.42244,W,1,08,1.30,50.0,M,-33.0,M,,*5E
$GSSIS,18215,-1
$GPGGA,175626.00,4245.42698,N,07129.42163,W,1,08,1.30,50.0,M,-33.0,M,,*54
$GSSIS,18335,-1
$GPGGA,175627.00,4245.42717,N,07129.42080,W,1,08,1.30,50.1,M,-33.0,M,,*5E
$GSSIS,18459,-1
$GPGGA,175628.00,4245.42742,N,07129.42005,W,1,08,1.30,50.2,M,-33.0,M,,*5F
$GSSIS,18583,-1
$GPGGA,175629.00,4245.42762,N,07129.41918,W,1,08,1.30,49.9,M,-33.0,M,,*59
$GSSIS,18711,-1
$GPGGA,175630.00,4245.42788,N,07129.41827,W,1,08,1.30,49.8,M,-33.0,M,,*59
$GSSIS,18840,-1
$GPGGA,175631.00,4245.42813,N,07129.41741,W,1,08,1.30,49.8,M,-33.0,M,,*5A
$GSSIS,18968,-1
$GPGGA,175632.00,4245.42818,N,07129.41641,W,1,08,1.30,49.8,M,-33.0,M,,*53
$GSSIS,19140,-1
$GPGGA,175633.00,4245.42834,N,07129.41542,W,1,08,1.30,50.0,M,-33.0,M,,*5C
$GSSIS,19228,-1
$GPGGA,175634.00,4245.42852,N,07129.41444,W,1,08,1.30,50.1,M,-33.0,M,,*5D
$GSSIS,19352,-1
$GPGGA,175635.00,4245.42877,N,07129.41350,W,1,08,1.30,50.0,M,-33.0,M,,*58
$GSSIS,19480,-1
$GPGGA,175636.00,4245.42903,N,07129.41262,W,1,08,1.30,50.2,M,-33.0,M,,*5B
$GSSIS,19609,-1
$GPGGA,175637.00,4245.42917,N,07129.41189,W,1,08,1.30,50.2,M,-33.0,M,,*59
$GSSIS,19734,-1
$GPGGA,175638.00,4245.42934,N,07129.41116,W,1,08,1.30,50.0,M,-33.0,M,,*53
$GSSIS,19858,-1
$GPGGA,175639.00,4245.42958,N,07129.41036,W,1,08,1.30,49.6,M,-33.0,M,,*55
$GSSIS,19981,-1
$GPGGA,175640.00,4245.42979,N,07129.40950,W,1,08,1.30,49.2,M,-33.0,M,,*54
$GSSIS,20103,-1
$GPGGA,175641.00,4245.43007,N,07129.40856,W,1,08,1.30,49.9,M,-33.0,M,,*58
$GSSIS,20223,-1
$GPGGA,175642.00,4245.43033,N,07129.40765,W,1,08,1.30,50.4,M,-33.0,M,,*56
$GSSIS,20338,-1
$GPGGA,175643.00,4245.43046,N,07129.40680,W,1,08,1.30,50.6,M,-33.0,M,,*5D
$GSSIS,20458,-1
$GPGGA,175644.00,4245.43064,N,07129.40595,W,1,08,1.30,50.5,M,-33.0,M,,*5E
$GSSIS,20588,-1
$GPGGA,175645.00,4245.43062,N,07129.40501,W,1,08,1.30,50.9,M,-33.0,M,,*58
$GSSIS,20720,-1
$GPGGA,175646.00,4245.43043,N,07129.40407,W,1,08,1.30,51.0,M,-33.0,M,,*57
$GSSIS,20855,-1
$GPGGA,175647.00,4245.43020,N,07129.40318,W,1,08,1.30,51.1,M,-33.0,M,,*5B
$GSSIS,20982,-1
$GPGGA,175648.00,4245.42975,N,07129.40237,W,1,08,1.30,51.0,M,-33.0,M,,*51
$GSSIS,21104,-1
$GPGGA,175649.00,4245.42931,N,07129.40170,W,1,08,1.30,50.8,M,-33.0,M,,*59
$GSSIS,21188,-1
$GPGGA,175650.00,4245.42896,N,07129.40110,W,1,08,1.30,51.0,M,-33.0,M,,*52
$GSSIS,21202,-1
$GPGGA,175651.00,4245.42876,N,07129.40097,W,1,08,1.30,51.0,M,-33.0,M,,*53

$GSSIS,20,-1
$GPGGA,175306.00,4245.43847,N,07129.42014,W,1,08,1.31,48.7,M,-33.0,M,,*50
$GSSIS,207,-1
$GPGGA,175308.00,4245.43844,N,07129.42016,W,1,08,1.31,48.5,M,-33.0,M,,*5D
$GSSIS,210,-1
$GPGGA,175310.00,4245.43893,N,07129.42013,W,1,08,1.79,48.2,M,-33.0,M,,*50
$GSSIS,285,-1
$GPGGA,175312.00,4245.43974,N,07129.41988,W,1,08,1.31,48.5,M,-33.0,M,,*59
$GSSIS,380,-1
$GPGGA,175313.00,4245.44017,N,07129.41978,W,1,08,1.31,48.0,M,-33.0,M,,*59
$GSSIS,475,-1
$GPGGA,175314.00,4245.44059,N,07129.41968,W,1,08,1.31,48.1,M,-33.0,M,,*54
$GSSIS,575,-1
$GPGGA,175315.00,4245.44112,N,07129.41964,W,1,08,1.31,48.2,M,-33.0,M,,*54
$GSSIS,678,-1
$GPGGA,175316.00,4245.44165,N,07129.41963,W,1,08,1.31,48.2,M,-33.0,M,,*50
$GSSIS,769,-1
$GPGGA,175317.00,4245.44213,N,07129.41960,W,1,08,1.31,48.1,M,-33.0,M,,*53
$GSSIS,865,-1
$GPGGA,175318.00,4245.44265,N,07129.41949,W,1,08,1.31,47.9,M,-33.0,M,,*51
$GSSIS,967,-1
$GPGGA,175319.00,4245.44316,N,07129.41935,W,1,08,1.31,47.9,M,-33.0,M,,*5E
$GSSIS,1060,-1
$GPGGA,175320.00,4245.44373,N,07129.41929,W,1,08,1.31,47.8,M,-33.0,M,,*5B
$GSSIS,1122,-1
$GPGGA,175321.00,4245.44429,N,07129.41930,W,1,08,1.31,48.0,M,-33.0,M,,*5D
$GSSIS,1126,-1
$GPGGA,175322.00,4245.44439,N,07129.41930,W,1,07,1.68,47.8,M,-33.0,M,,*5B
$GSSIS,1176,-1
$GPGGA,175323.00,4245.44449,N,07129.41925,W,1,08,1.31,47.6,M,-33.0,M,,*54
$GSSIS,1421,-1
$GPGGA,175324.00,4245.44483,N,07129.41921,W,1,08,1.31,47.5,M,-33.0,M,,*52
$GSSIS,1424,-1
$GPGGA,175325.00,4245.44531,N,07129.41918,W,1,08,1.31,47.7,M,-33.0,M,,*53
$GSSIS,1677,-1
$GPGGA,175326.00,4245.44573,N,07129.41915,W,1,08,1.31,47.5,M,-33.0,M,,*59
$GSSIS,1682,-1
$GPGGA,175327.00,4245.44624,N,07129.41910,W,1,08,1.31,48.0,M,-33.0,M,,*56
$GSSIS,1734,-1
$GPGGA,175329.00,4245.44724,N,07129.41916,W,1,08,1.31,47.6,M,-33.0,M,,*56
$GSSIS,1835,-1
$GPGGA,175330.00,4245.44776,N,07129.41907,W,1,08,1.31,47.7,M,-33.0,M,,*58
$GSSIS,2177,-1
$GPGGA,175331.00,4245.44822,N,07129.41894,W,1,08,1.31,47.5,M,-33.0,M,,*5E
$GSSIS,2231,-1
$GPGGA,175333.00,4245.44926,N,07129.41877,W,1,08,1.31,47.6,M,-33.0,M,,*57
$GSSIS,2370,-1
$GPGGA,175341.00,4245.44998,N,07129.41862,W,1,08,1.31,48.4,M,-33.0,M,,*5E
$GSSIS,2372,-1
$GPGGA,175342.00,4245.45009,N,07129.41865,W,1,08,1.31,48.4,M,-33.0,M,,*5A
$GSSIS,2423,-1
$GPGGA,175344.00,4245.45085,N,07129.41864,W,1,08,1.30,48.5,M,-33.0,M,,*59
$GSSIS,2520,-1
$GPGGA,175345.00,4245.45128,N,07129.41861,W,1,08,1.30,48.4,M,-33.0,M,,*5A
$GSSIS,2657,-1
$GPGGA,175346.00,4245.45180,N,07129.41856,W,1,08,1.30,48.4,M,-33.0,M,,*5F
$GSSIS,2659,-1
$GPGGA,175348.00,4245.45225,N,07129.41831,W,1,08,1.30,48.6,M,-33.0,M,,*5E
$GSSIS,2774,-1
$GPGGA,175401.00,4245.45114,N,07129.41836,W,1,08,1.30,49.0,M,-33.0,M,,*55
$GSSIS,2775,-1
$GPGGA,175402.00,4245.45163,N,07129.41836,W,1,08,1.30,48.9,M,-33.0,M,,*5E
$GSSIS,3031,-1
$GPGGA,175403.00,4245.45211,N,07129.41830,W,1,08,1.30,48.9,M,-33.0,M,,*5F
$GSSIS,3032,-1
$GPGGA,175404.00,4245.45264,N,07129.41822,W,1,08,1.30,48.9,M,-33.0,M,,*59
$GSSIS,3035,-1
$GPGGA,175405.00,4245.45315,N,07129.41821,W,1,08,1.30,48.8,M,-33.0,M,,*5D
$GSSIS,3118,-1
$GPGGA,175407.00,4245.45413,N,07129.41809,W,1,08,1.30,48.8,M,-33.0,M,,*54
$GSSIS,3219,-1
$GPGGA,175408.00,4245.45471,N,07129.41805,W,1,08,1.30,49.0,M,-33.0,M,,*5A
$GSSIS,3316,-1
$GPGGA,175409.00,4245.45525,N,07129.41804,W,1,08,1.30,48.8,M,-33.0,M,,*53
$GSSIS,3420,-1
$GPGGA,175410.00,4245.45576,N,07129.41809,W,1,08,1.30,48.7,M,-33.0,M,,*5F
$GSSIS,3519,-1
$GPGGA,175411.00,4245.45617,N,07129.41798,W,1,08,1.30,48.6,M,-33.0,M,,*5C
$GSSIS,3623,-1
$GPGGA,175412.00,4245.45667,N,07129.41789,W,1,08,1.30,48.8,M,-33.0,M,,*56
$GSSIS,3718,-1
$GPGGA,175413.00,4245.45730,N,07129.41791,W,1,08,1.30,48.9,M,-33.0,M,,*5C
$GSSIS,3819,-1
$GPGGA,175414.00,4245.45784,N,07129.41790,W,1,08,1.30,49.0,M,-33.0,M,,*5D
$GSSIS,3920,-1
$GPGGA,175415.00,4245.45829,N,07129.41787,W,1,08,1.30,48.7,M,-33.0,M,,*54
$GSSIS,4021,-1
$GPGGA,175416.00,4245.45878,N,07129.41784,W,1,08,1.30,48.5,M,-33.0,M,,*52
$GSSIS,4125,-1
$GPGGA,175417.00,4245.45910,N,07129.41769,W,1,08,1.30,48.2,M,-33.0,M,,*58
$GSSIS,4221,-1
$GPGGA,175418.00,4245.45961,N,07129.41771,W,1,08,1.30,48.1,M,-33.0,M,,*5B
$GSSIS,4530,-1
$GPGGA,175419.00,4245.46026,N,07129.41790,W,1,08,1.30,48.2,M,-33.0,M,,*5F
$GSSIS,4533,-1
$GPGGA,175420.00,4245.46082,N,07129.41801,W,1,08,1.30,48.1,M,-33.0,M,,*5F
$GSSIS,4809,-1
$GPGGA,175421.00,4245.46141,N,07129.41820,W,1,08,1.30,48.1,M,-33.0,M,,*53
$GSSIS,4810,-1
$GPGGA,175422.00,4245.46197,N,07129.41837,W,1,08,1.30,48.1,M,-33.0,M,,*5D
$GSSIS,4860,-1
$GPGGA,175424.00,4245.46317,N,07129.41829,W,1,08,1.30,48.0,M,-33.0,M,,*5F
$GSSIS,4958,-1
$GPGGA,175425.00,4245.46368,N,07129.41829,W,1,08,1.30,47.9,M,-33.0,M,,*50
$GSSIS,5320,-1
$GPGGA,175426.00,4245.46422,N,07129.41842,W,1,08,1.30,47.8,M,-33.0,M,,*56
$GSSIS,5321,-1
$GPGGA,175427.00,4245.46468,N,07129.41850,W,1,08,1.30,47.7,M,-33.0,M,,*55
$GSSIS,5618,-1
$GPGGA,175428.00,4245.46519,N,07129.41867,W,1,08,1.30,47.6,M,-33.0,M,,*58
$GSSIS,5622,-1
$GPGGA,175430.00,4245.46611,N,07129.41911,W,1,08,1.30,47.3,M,-33.0,M,,*5F
$GSSIS,5712,-1
$GPGGA,175432.00,4245.46723,N,07129.41987,W,1,08,1.30,47.4,M,-33.0,M,,*55
$GSSIS,5825,-1
$GPGGA,175433.00,4245.46762,N,07129.42035,W,1,08,1.30,47.4,M,-33.0,M,,*52
$GSSIS,6148,-1
$GPGGA,175434.00,4245.46806,N,07129.42101,W,1,08,1.30,47.6,M,-33.0,M,,*5C
$GSSIS,6438,-1
$GPGGA,175436.00,4245.46858,N,07129.42227,W,1,08,1.30,47.7,M,-33.0,M,,*53
$GSSIS,6439,-1
$GPGGA,175437.00,4245.46882,N,07129.42303,W,1,08,1.30,48.0,M,-33.0,M,,*5A
$GSSIS,6501,-1
$GPGGA,175439.00,4245.46921,N,07129.42463,W,1,08,1.30,47.1,M,-33.0,M,,*53
$GSSIS,6610,-1
$GPGGA,175440.00,4245.46943,N,07129.42551,W,1,08,1.30,46.9,M,-33.0,M,,*50
$GSSIS,6998,-1
$GPGGA,175441.00,4245.46979,N,07129.42609,W,1,08,1.30,45.7,M,-33.0,M,,*5B
$GSSIS,7044,-1
$GPGGA,175442.00,4245.46996,N,07129.42688,W,1,08,1.30,45.6,M,-33.0,M,,*51
$GSSIS,7046,-1
$GPGGA,175447.00,4245.47030,N,07129.42895,W,1,08,1.30,45.9,M,-33.0,M,,*5D
$GSSIS,7108,-1
$GPGGA,175448.00,4245.47034,N,07129.42923,W,1,08,1.30,45.9,M,-33.0,M,,*5A
$GSSIS,7364,-1
$GPGGA,175449.00,4245.47035,N,07129.42982,W,1,08,1.30,46.0,M,-33.0,M,,*5B
$GSSIS,7575,-1
$GPGGA,175451.00,4245.47055,N,07129.43123,W,1,08,1.30,46.5,M,-33.0,M,,*53
$GSSIS,7576,-1
$GPGGA,175452.00,4245.47066,N,07129.43189,W,1,08,1.30,46.0,M,-33.0,M,,*55
$GSSIS,7581,-1
$GPGGA,175453.00,4245.47069,N,07129.43245,W,1,08,1.30,46.0,M,-33.0,M,,*58
$GSSIS,7619,-1
$GPGGA,175454.00,4245.47076,N,07129.43296,W,1,08,1.30,45.9,M,-33.0,M,,*55
$GSSIS,7698,-1
$GPGGA,175455.00,4245.47101,N,07129.43348,W,1,08,1.30,45.9,M,-33.0,M,,*57
$GSSIS,8020,-1
$GPGGA,175456.00,4245.47124,N,07129.43410,W,1,08,1.30,45.7,M,-33.0,M,,*57
$GSSIS,8023,-1
$GPGGA,175457.00,4245.47156,N,07129.43459,W,1,08,1.30,45.7,M,-33.0,M,,*5E
$GSSIS,8344,-1
$GPGGA,175458.00,4245.47188,N,07129.43499,W,1,08,1.30,45.8,M,-33.0,M,,*51
$GSSIS,8346,-1
$GPGGA,175459.00,4245.47196,N,07129.43543,W,1,08,1.30,45.6,M,-33.0,M,,*57
$GSSIS,8350,-1
$GPGGA,175500.00,4245.47174,N,07129.43601,W,1,08,1.30,45.8,M,-33.0,M,,*5D
$GSSIS,8452,-1
$GPGGA,175502.00,4245.47058,N,07129.43659,W,1,08,1.30,46.5,M,-33.0,M,,*53
$GSSIS,8563,-1
$GPGGA,175503.00,4245.46986,N,07129.43668,W,1,08,1.30,46.6,M,-33.0,M,,*58
$GSSIS,8685,-1
$GPGGA,175504.00,4245.46915,N,07129.43675,W,1,08,1.30,47.1,M,-33.0,M,,*5F
$GSSIS,8815,-1
$GPGGA,175505.00,4245.46858,N,07129.43661,W,1,08,1.30,46.8,M,-33.0,M,,*5B
$GSSIS,8930,-1
$GPGGA,175506.00,4245.46784,N,07129.43659,W,1,08,1.30,47.4,M,-33.0,M,,*50
$GSSIS,9051,-1
$GPGGA,175507.00,4245.46721,N,07129.43632,W,1,08,1.30,47.3,M,-33.0,M,,*54
$GSSIS,9173,-1
$GPGGA,175508.00,4245.46661,N,07129.43618,W,1,08,1.30,47.3,M,-33.0,M,,*56
$GSSIS,9295,-1
$GPGGA,175509.00,4245.46594,N,07129.43612,W,1,08,1.30,47.7,M,-33.0,M,,*50
$GSSIS,9416,-1
$GPGGA,175510.00,4245.46525,N,07129.43606,W,1,08,1.30,47.8,M,-33.0,M,,*58
$GSSIS,9542,-1
$GPGGA,175511.00,4245.46458,N,07129.43606,W,1,08,1.30,47.8,M,-33.0,M,,*52
$GSSIS,9669,-1
$GPGGA,175512.00,4245.46390,N,07129.43609,W,1,08,1.30,47.8,M,-33.0,M,,*5D
$GSSIS,9796,-1
$GPGGA,175513.00,4245.46321,N,07129.43610,W,1,08,1.30,47.8,M,-33.0,M,,*5E
$GSSIS,9923,-1
$GPGGA,175514.00,4245.46244,N,07129.43609,W,1,08,1.30,48.2,M,-33.0,M,,*56
$GSSIS,10093,-1
$GPGGA,175515.00,4245.46175,N,07129.43604,W,1,08,1.30,48.2,M,-33.0,M,,*5B
$GSSIS,10182,-1
$GPGGA,175516.00,4245.46107,N,07129.43595,W,1,08,1.30,48.4,M,-33.0,M,,*50
$GSSIS,10309,-1
$GPGGA,175517.00,4245.46045,N,07129.43571,W,1,08,1.30,48.3,M,-33.0,M,,*5B
$GSSIS,10437,-1
$GPGGA,175518.00,4245.45985,N,07129.43554,W,1,08,1.30,48.1,M,-33.0,M,,*57
$GSSIS,10559,-1
$GPGGA,175519.00,4245.45921,N,07129.43534,W,1,08,1.30,47.6,M,-33.0,M,,*56
$GSSIS,10683,-1
$GPGGA,175520.00,4245.45854,N,07129.43534,W,1,08,1.30,47.6,M,-33.0,M,,*5F
$GSSIS,10814,-1
$GPGGA,175521.00,4245.45782,N,07129.43543,W,1,08,1.30,47.9,M,-33.0,M,,*55
$GSSIS,10948,-1
$GPGGA,175522.00,4245.45710,N,07129.43546,W,1,08,1.30,48.0,M,-33.0,M,,*5E
$GSSIS,11073,-1
$GPGGA,175523.00,4245.45639,N,07129.43531,W,1,08,1.30,47.9,M,-33.0,M,,*53
$GSSIS,11203,-1
$GPGGA,175524.00,4245.45565,N,07129.43514,W,1,08,1.30,47.8,M,-33.0,M,,*58
$GSSIS,11330,-1
$GPGGA,175525.00,4245.45500,N,07129.43508,W,1,08,1.30,47.9,M,-33.0,M,,*56
$GSSIS,11456,-1
$GPGGA,175526.00,4245.45434,N,07129.43511,W,1,08,1.30,48.2,M,-33.0,M,,*5F
$GSSIS,11577,-1
$GPGGA,175527.00,4245.45365,N,07129.43508,W,1,08,1.30,48.2,M,-33.0,M,,*55
$GSSIS,11701,-1
$GPGGA,175528.00,4245.45299,N,07129.43502,W,1,08,1.30,47.9,M,-33.0,M,,*56
$GSSIS,11831,-1
$GPGGA,175529.00,4245.45229,N,07129.43506,W,1,08,1.30,48.2,M,-33.0,M,,*5C
$GSSIS,11962,-1
$GPGGA,175530.00,4245.45162,N,07129.43509,W,1,08,1.30,48.3,M,-33.0,M,,*56
$GSSIS,12081,-1
